{
"type": "FeatureCollection",
"name": "HF1",
"crs": { "type": "name", "properties": { "name": "urn:ogc:def:crs:OGC:1.3:CRS84" } },
"features": [
{ "type": "Feature", "properties": { "Region": "40", "Sous_prefe": "Dikhil", "Type": "4011", "landtype": "Yoboki", "district": "Poste de sante", "Nom": "Rural", "Pop_rayon": 0, "Moins1": 401113, "moins5": 0, "Grossesses": 42, "Accouche": 11, "15_49ans": 821 }, "geometry": { "type": "Point", "coordinates": [ 42.30778, 11.17027 ] } },
{ "type": "Feature", "properties": { "Region": "60", "Sous_prefe": "Tadjourah", "Type": "6012", "landtype": "Adaillou", "district": "Poste de sante", "Nom": "Rural", "Pop_rayon": 0, "Moins1": 601210, "moins5": 0, "Grossesses": 42, "Accouche": 11, "15_49ans": 5576 }, "geometry": { "type": "Point", "coordinates": [ 42.745209, 11.960009 ] } },
{ "type": "Feature", "properties": { "Region": "60", "Sous_prefe": "Tadjourah", "Type": "6012", "landtype": "Adaillou", "district": "Poste de sante", "Nom": "Rural", "Pop_rayon": 0, "Moins1": 601213, "moins5": 0, "Grossesses": 42, "Accouche": 11, "15_49ans": 1798 }, "geometry": { "type": "Point", "coordinates": [ 42.667886, 11.944552 ] } },
{ "type": "Feature", "properties": { "Region": "50", "Sous_prefe": "Obock", "Type": "5011", "landtype": "Alaili Dada", "district": "Poste de sante", "Nom": "Rural", "Pop_rayon": 0, "Moins1": 501111, "moins5": 0, "Grossesses": 42, "Accouche": 12, "15_49ans": 14432 }, "geometry": { "type": "Point", "coordinates": [ 42.901294, 12.408243 ] } },
{ "type": "Feature", "properties": { "Region": "30", "Sous_prefe": "Ali Sabieh", "Type": "3011", "landtype": "Ali Addeh", "district": "Poste de sante", "Nom": "Rural", "Pop_rayon": 0, "Moins1": 301111, "moins5": 0, "Grossesses": 42, "Accouche": 11, "15_49ans": 30229 }, "geometry": { "type": "Point", "coordinates": [ 42.89237, 11.13186 ] } },
{ "type": "Feature", "properties": { "Region": "30", "Sous_prefe": "Ali Sabieh", "Type": "3010", "landtype": "Ali Sabieh", "district": "CHM", "Nom": "Urban", "Pop_rayon": 0, "Moins1": 301010, "moins5": 0, "Grossesses": 42, "Accouche": 11, "15_49ans": 29450 }, "geometry": { "type": "Point", "coordinates": [ 42.695768, 11.15034 ] } },
{ "type": "Feature", "properties": { "Region": "10", "Sous_prefe": "Djiboutiville", "Type": "1010", "landtype": "Djiboutiville", "district": "CSC", "Nom": "Urban", "Pop_rayon": 0, "Moins1": 101010, "moins5": 0, "Grossesses": 43, "Accouche": 11, "15_49ans": 33955 }, "geometry": { "type": "Point", "coordinates": [ 43.141753736900206, 11.560817768339712 ] } },
{ "type": "Feature", "properties": { "Region": "10", "Sous_prefe": "Djiboutiville", "Type": "1010", "landtype": "Djiboutiville", "district": "CSC", "Nom": "Urban", "Pop_rayon": 0, "Moins1": 101011, "moins5": 0, "Grossesses": 0, "Accouche": 0, "15_49ans": 35577 }, "geometry": { "type": "Point", "coordinates": [ 29.977148944644508, 6.329699712935531 ] } },
{ "type": "Feature", "properties": { "Region": "20", "Sous_prefe": "Arta", "Type": "2010", "landtype": "Arta", "district": "CHM", "Nom": "Urban", "Pop_rayon": 0, "Moins1": 201010, "moins5": 0, "Grossesses": 42, "Accouche": 11, "15_49ans": 19498 }, "geometry": { "type": "Point", "coordinates": [ 42.850384, 11.527658 ] } },
{ "type": "Feature", "properties": { "Region": "40", "Sous_prefe": "Dikhil", "Type": "4013", "landtype": "As Eyla", "district": "Poste de sante", "Nom": "Rural", "Pop_rayon": 0, "Moins1": 401310, "moins5": 0, "Grossesses": 42, "Accouche": 11, "15_49ans": 18068 }, "geometry": { "type": "Point", "coordinates": [ 42.10359, 11.00445 ] } },
{ "type": "Feature", "properties": { "Region": "60", "Sous_prefe": "Tadjourah", "Type": "6012", "landtype": "Adaillou", "district": "Poste de sante", "Nom": "Rural", "Pop_rayon": 0, "Moins1": 601212, "moins5": 0, "Grossesses": 42, "Accouche": 12, "15_49ans": 7232 }, "geometry": { "type": "Point", "coordinates": [ 42.637543, 12.195521 ] } },
{ "type": "Feature", "properties": { "Region": "30", "Sous_prefe": "Ali Sabieh", "Type": "3011", "landtype": "Ali Addeh", "district": "Poste de sante", "Nom": "Rural", "Pop_rayon": 0, "Moins1": 301112, "moins5": 0, "Grossesses": 42, "Accouche": 10, "15_49ans": 8354 }, "geometry": { "type": "Point", "coordinates": [ 42.83903, 10.98441 ] } },
{ "type": "Feature", "properties": { "Region": "50", "Sous_prefe": "Obock", "Type": "5010", "landtype": "Obock", "district": "Poste de sante", "Nom": "Rural", "Pop_rayon": 0, "Moins1": 505011, "moins5": 0, "Grossesses": 43, "Accouche": 12, "15_49ans": 7799 }, "geometry": { "type": "Point", "coordinates": [ 43.1295, 12.02486 ] } },
{ "type": "Feature", "properties": { "Region": "10", "Sous_prefe": "Djiboutiville", "Type": "1010", "landtype": "Djiboutiville", "district": "CSC", "Nom": "Urban", "Pop_rayon": 0, "Moins1": 101017, "moins5": 0, "Grossesses": 43, "Accouche": 11, "15_49ans": 69755 }, "geometry": { "type": "Point", "coordinates": [ 43.124275012943798, 11.556643455147068 ] } },
{ "type": "Feature", "properties": { "Region": "10", "Sous_prefe": "Djiboutiville", "Type": "1010", "landtype": "Djiboutiville", "district": "CSC", "Nom": "Urban", "Pop_rayon": 0, "Moins1": 101018, "moins5": 0, "Grossesses": 0, "Accouche": 0, "15_49ans": 64159 }, "geometry": { "type": "Point", "coordinates": [ 43.111542274097602, 11.551221224638388 ] } },
{ "type": "Feature", "properties": { "Region": "60", "Sous_prefe": "Tadjourah", "Type": "6013", "landtype": "Dorra", "district": "Poste de sante", "Nom": "Rural", "Pop_rayon": 0, "Moins1": 601311, "moins5": 0, "Grossesses": 42, "Accouche": 12, "15_49ans": 2301 }, "geometry": { "type": "Point", "coordinates": [ 42.190877, 12.059615 ] } },
{ "type": "Feature", "properties": { "Region": "30", "Sous_prefe": "Ali Sabieh", "Type": "3012", "landtype": "Holl Holl", "district": "Poste de sante", "Nom": "Rural", "Pop_rayon": 0, "Moins1": 301212, "moins5": 0, "Grossesses": 42, "Accouche": 11, "15_49ans": 1409 }, "geometry": { "type": "Point", "coordinates": [ 42.806914, 11.231321 ] } },
{ "type": "Feature", "properties": { "Region": "20", "Sous_prefe": "Arta", "Type": "2011", "landtype": "Damerjog", "district": "Poste de sante", "Nom": "Rural", "Pop_rayon": 0, "Moins1": 201112, "moins5": 0, "Grossesses": 43, "Accouche": 11, "15_49ans": 3306 }, "geometry": { "type": "Point", "coordinates": [ 43.07361, 11.48838 ] } },
{ "type": "Feature", "properties": { "Region": "50", "Sous_prefe": "Obock", "Type": "5010", "landtype": "Obock", "district": "Poste de sante", "Nom": "Rural", "Pop_rayon": 0, "Moins1": 501012, "moins5": 0, "Grossesses": 43, "Accouche": 11, "15_49ans": 1741 }, "geometry": { "type": "Point", "coordinates": [ 43.08283, 11.84948 ] } },
{ "type": "Feature", "properties": { "Region": "20", "Sous_prefe": "Arta", "Type": "2011", "landtype": "Damerjog", "district": "Poste de sante", "Nom": "Rural", "Pop_rayon": 0, "Moins1": 201111, "moins5": 0, "Grossesses": 43, "Accouche": 11, "15_49ans": 17204 }, "geometry": { "type": "Point", "coordinates": [ 43.18724, 11.48391 ] } },
{ "type": "Feature", "properties": { "Region": "30", "Sous_prefe": "Ali Sabieh", "Type": "3010", "landtype": "Ali Sabieh", "district": "Poste de sante", "Nom": "Rural", "Pop_rayon": 0, "Moins1": 301011, "moins5": 0, "Grossesses": 42, "Accouche": 11, "15_49ans": 5466 }, "geometry": { "type": "Point", "coordinates": [ 42.79797, 11.25157 ] } },
{ "type": "Feature", "properties": { "Region": "60", "Sous_prefe": "Tadjourah", "Type": "6011", "landtype": "Randa", "district": "Poste de sante", "Nom": "Rural", "Pop_rayon": 0, "Moins1": 601111, "moins5": 0, "Grossesses": 42, "Accouche": 11, "15_49ans": 7538 }, "geometry": { "type": "Point", "coordinates": [ 42.640967, 11.779193 ] } },
{ "type": "Feature", "properties": { "Region": "40", "Sous_prefe": "Dikhil", "Type": "4010", "landtype": "Dikhil et environs", "district": "CHM", "Nom": "Urban", "Pop_rayon": 0, "Moins1": 401010, "moins5": 0, "Grossesses": 42, "Accouche": 11, "15_49ans": 35973 }, "geometry": { "type": "Point", "coordinates": [ 42.373858, 11.104889 ] } },
{ "type": "Feature", "properties": { "Region": "60", "Sous_prefe": "Tadjourah", "Type": "6013", "landtype": "Dorra", "district": "Poste de sante", "Nom": "Rural", "Pop_rayon": 0, "Moins1": 601310, "moins5": 0, "Grossesses": 42, "Accouche": 12, "15_49ans": 26081 }, "geometry": { "type": "Point", "coordinates": [ 42.477503, 12.153695 ] } },
{ "type": "Feature", "properties": { "Region": "20", "Sous_prefe": "Arta", "Type": "2011", "landtype": "Damerjog", "district": "Poste de sante", "Nom": "Rural", "Pop_rayon": 0, "Moins1": 201113, "moins5": 0, "Grossesses": 43, "Accouche": 11, "15_49ans": 3927 }, "geometry": { "type": "Point", "coordinates": [ 43.09461, 11.31484 ] } },
{ "type": "Feature", "properties": { "Region": "10", "Sous_prefe": "Djiboutiville", "Type": "1010", "landtype": "Djiboutiville", "district": "CSC", "Nom": "Urban", "Pop_rayon": 0, "Moins1": 101012, "moins5": 0, "Grossesses": 43, "Accouche": 11, "15_49ans": 37556 }, "geometry": { "type": "Point", "coordinates": [ 43.144953736900206, 11.587043768339711 ] } },
{ "type": "Feature", "properties": { "Region": "10", "Sous_prefe": "Djiboutiville", "Type": "1010", "landtype": "Djiboutiville", "district": "CSC", "Nom": "Urban", "Pop_rayon": 0, "Moins1": 101013, "moins5": 0, "Grossesses": 43, "Accouche": 11, "15_49ans": 56686 }, "geometry": { "type": "Point", "coordinates": [ 43.151353736900205, 11.578796768339712 ] } },
{ "type": "Feature", "properties": { "Region": "40", "Sous_prefe": "Dikhil", "Type": "4011", "landtype": "Yoboki", "district": "Poste de sante", "Nom": "Rural", "Pop_rayon": 0, "Moins1": 401112, "moins5": 0, "Grossesses": 42, "Accouche": 11, "15_49ans": 895 }, "geometry": { "type": "Point", "coordinates": [ 42.26806, 11.20451 ] } },
{ "type": "Feature", "properties": { "Region": "30", "Sous_prefe": "Ali Sabieh", "Type": "3012", "landtype": "Holl Holl", "district": "Poste de sante", "Nom": "Rural", "Pop_rayon": 0, "Moins1": 301211, "moins5": 0, "Grossesses": 43, "Accouche": 11, "15_49ans": 4025 }, "geometry": { "type": "Point", "coordinates": [ 43.00068, 11.42149 ] } },
{ "type": "Feature", "properties": { "Region": "40", "Sous_prefe": "Dikhil", "Type": "4011", "landtype": "Yoboki", "district": "Poste de sante", "Nom": "Rural", "Pop_rayon": 0, "Moins1": 401111, "moins5": 0, "Grossesses": 42, "Accouche": 11, "15_49ans": 3471 }, "geometry": { "type": "Point", "coordinates": [ 42.22271, 11.28814 ] } },
{ "type": "Feature", "properties": { "Region": "30", "Sous_prefe": "Ali Sabieh", "Type": "3011", "landtype": "Ali Addeh", "district": "Poste de sante", "Nom": "Rural", "Pop_rayon": 0, "Moins1": 301113, "moins5": 0, "Grossesses": 42, "Accouche": 11, "15_49ans": 5556 }, "geometry": { "type": "Point", "coordinates": [ 42.96139, 11.01511 ] } },
{ "type": "Feature", "properties": { "Region": "60", "Sous_prefe": "Tadjourah", "Type": "6012", "landtype": "Adaillou", "district": "Poste de sante", "Nom": "Rural", "Pop_rayon": 0, "Moins1": 601211, "moins5": 0, "Grossesses": 42, "Accouche": 12, "15_49ans": 3762 }, "geometry": { "type": "Point", "coordinates": [ 42.793134, 12.063926 ] } },
{ "type": "Feature", "properties": { "Region": "10", "Sous_prefe": "Djiboutiville", "Type": "1010", "landtype": "Djiboutiville", "district": "CSC", "Nom": "Urban", "Pop_rayon": 0, "Moins1": 101020, "moins5": 0, "Grossesses": 43, "Accouche": 11, "15_49ans": 80702 }, "geometry": { "type": "Point", "coordinates": [ 43.103967665649243, 11.566944520713909 ] } },
{ "type": "Feature", "properties": { "Region": "30", "Sous_prefe": "Ali Sabieh", "Type": "3012", "landtype": "Holl Holl", "district": "Poste de sante", "Nom": "Rural", "Pop_rayon": 0, "Moins1": 301210, "moins5": 0, "Grossesses": 42, "Accouche": 11, "15_49ans": 21003 }, "geometry": { "type": "Point", "coordinates": [ 42.93004, 11.3115 ] } },
{ "type": "Feature", "properties": { "Region": "10", "Sous_prefe": "Djiboutiville", "Type": "1010", "landtype": "Djiboutiville", "district": "CSC", "Nom": "Urban", "Pop_rayon": 0, "Moins1": 101014, "moins5": 0, "Grossesses": 43, "Accouche": 11, "15_49ans": 25795 }, "geometry": { "type": "Point", "coordinates": [ 43.147353736900207, 11.57948176833971 ] } },
{ "type": "Feature", "properties": { "Region": "60", "Sous_prefe": "Tadjourah", "Type": "6010", "landtype": "Tadjourah", "district": "Poste de sante", "Nom": "Rural", "Pop_rayon": 0, "Moins1": 601012, "moins5": 0, "Grossesses": 42, "Accouche": 11, "15_49ans": 780 }, "geometry": { "type": "Point", "coordinates": [ 42.791871, 11.757469 ] } },
{ "type": "Feature", "properties": { "Region": "20", "Sous_prefe": "Arta", "Type": "2010", "landtype": "Arta", "district": "Poste de sante", "Nom": "Rural", "Pop_rayon": 0, "Moins1": 201013, "moins5": 0, "Grossesses": 42, "Accouche": 11, "15_49ans": 1152 }, "geometry": { "type": "Point", "coordinates": [ 42.562068, 11.447041 ] } },
{ "type": "Feature", "properties": { "Region": "50", "Sous_prefe": "Obock", "Type": "5011", "landtype": "Alaili Dada", "district": "Poste de sante", "Nom": "Rural", "Pop_rayon": 0, "Moins1": 501112, "moins5": 0, "Grossesses": 43, "Accouche": 12, "15_49ans": 824 }, "geometry": { "type": "Point", "coordinates": [ 43.3346, 12.38572 ] } },
{ "type": "Feature", "properties": { "Region": "10", "Sous_prefe": "Djiboutiville", "Type": "1010", "landtype": "Djiboutiville", "district": "CSC", "Nom": "Urban", "Pop_rayon": 0, "Moins1": 101015, "moins5": 0, "Grossesses": 43, "Accouche": 11, "15_49ans": 25129 }, "geometry": { "type": "Point", "coordinates": [ 43.151653736900208, 11.590031768339712 ] } },
{ "type": "Feature", "properties": { "Region": "40", "Sous_prefe": "Dikhil", "Type": "4013", "landtype": "As Eyla", "district": "Poste de sante", "Nom": "Rural", "Pop_rayon": 0, "Moins1": 401311, "moins5": 0, "Grossesses": 41, "Accouche": 11, "15_49ans": 6235 }, "geometry": { "type": "Point", "coordinates": [ 41.96503, 11.02032 ] } },
{ "type": "Feature", "properties": { "Region": "50", "Sous_prefe": "Obock", "Type": "5011", "landtype": "Alaili Dada", "district": "Poste de sante", "Nom": "Rural", "Pop_rayon": 0, "Moins1": 501114, "moins5": 0, "Grossesses": 43, "Accouche": 11, "15_49ans": 1814 }, "geometry": { "type": "Point", "coordinates": [ 43.03508, 11.98014 ] } },
{ "type": "Feature", "properties": { "Region": "40", "Sous_prefe": "Dikhil", "Type": "4012", "landtype": "Mouloud", "district": "Poste de sante", "Nom": "Rural", "Pop_rayon": 0, "Moins1": 401210, "moins5": 0, "Grossesses": 42, "Accouche": 11, "15_49ans": 6172 }, "geometry": { "type": "Point", "coordinates": [ 42.50402, 11.16508 ] } },
{ "type": "Feature", "properties": { "Region": "50", "Sous_prefe": "Obock", "Type": "5010", "landtype": "Obock", "district": "CHM", "Nom": "Urban", "Pop_rayon": 0, "Moins1": 501010, "moins5": 0, "Grossesses": 43, "Accouche": 11, "15_49ans": 17235 }, "geometry": { "type": "Point", "coordinates": [ 43.288983, 11.961767 ] } },
{ "type": "Feature", "properties": { "Region": "10", "Sous_prefe": "Djiboutiville", "Type": "1010", "landtype": "Djiboutiville", "district": "CSC", "Nom": "Urban", "Pop_rayon": 0, "Moins1": 101021, "moins5": 0, "Grossesses": 43, "Accouche": 11, "15_49ans": 43020 }, "geometry": { "type": "Point", "coordinates": [ 43.081753736900211, 11.55692976833971 ] } },
{ "type": "Feature", "properties": { "Region": "20", "Sous_prefe": "Arta", "Type": "2010", "landtype": "Arta", "district": "Poste de sante", "Nom": "Rural", "Pop_rayon": 0, "Moins1": 201012, "moins5": 0, "Grossesses": 42, "Accouche": 11, "15_49ans": 1124 }, "geometry": { "type": "Point", "coordinates": [ 42.76088, 11.42318 ] } },
{ "type": "Feature", "properties": { "Region": "10", "Sous_prefe": "Djiboutiville", "Type": "1010", "landtype": "Djiboutiville", "district": "CSC", "Nom": "Urban", "Pop_rayon": 0, "Moins1": 101016, "moins5": 0, "Grossesses": 43, "Accouche": 11, "15_49ans": 42508 }, "geometry": { "type": "Point", "coordinates": [ 43.147053736900205, 11.577738768339712 ] } },
{ "type": "Feature", "properties": { "Region": "60", "Sous_prefe": "Tadjourah", "Type": "6011", "landtype": "Randa", "district": "Poste de sante", "Nom": "Rural", "Pop_rayon": 0, "Moins1": 601110, "moins5": 0, "Grossesses": 42, "Accouche": 11, "15_49ans": 11391 }, "geometry": { "type": "Point", "coordinates": [ 42.654841, 11.849718 ] } },
{ "type": "Feature", "properties": { "Region": "60", "Sous_prefe": "Tadjourah", "Type": "6010", "landtype": "Tadjourah", "district": "Poste de sante", "Nom": "Rural", "Pop_rayon": 0, "Moins1": 601011, "moins5": 0, "Grossesses": 42, "Accouche": 11, "15_49ans": 6136 }, "geometry": { "type": "Point", "coordinates": [ 42.917459, 11.863624 ] } },
{ "type": "Feature", "properties": { "Region": "60", "Sous_prefe": "Tadjourah", "Type": "6014", "landtype": "Lac Assal", "district": "Poste de sante", "Nom": "Rural", "Pop_rayon": 0, "Moins1": 601410, "moins5": 0, "Grossesses": 42, "Accouche": 11, "15_49ans": 6905 }, "geometry": { "type": "Point", "coordinates": [ 42.73404, 11.67146 ] } },
{ "type": "Feature", "properties": { "Region": "40", "Sous_prefe": "Dikhil", "Type": "4010", "landtype": "Dikhil et environs", "district": "Poste de sante", "Nom": "Rural", "Pop_rayon": 0, "Moins1": 401011, "moins5": 0, "Grossesses": 42, "Accouche": 10, "15_49ans": 6262 }, "geometry": { "type": "Point", "coordinates": [ 42.20051, 10.97169 ] } },
{ "type": "Feature", "properties": { "Region": "60", "Sous_prefe": "Tadjourah", "Type": "6010", "landtype": "Tadjourah", "district": "CHM", "Nom": "Urban", "Pop_rayon": 0, "Moins1": 601010, "moins5": 0, "Grossesses": 42, "Accouche": 11, "15_49ans": 25692 }, "geometry": { "type": "Point", "coordinates": [ 42.885209, 11.78441 ] } },
{ "type": "Feature", "properties": { "Region": "50", "Sous_prefe": "Obock", "Type": "5011", "landtype": "Alaili Dada", "district": "Poste de sante", "Nom": "Rural", "Pop_rayon": 0, "Moins1": 501113, "moins5": 0, "Grossesses": 43, "Accouche": 12, "15_49ans": 2081 }, "geometry": { "type": "Point", "coordinates": [ 43.00908, 12.13635 ] } },
{ "type": "Feature", "properties": { "Region": "10", "Sous_prefe": "Djiboutiville", "Type": "1010", "landtype": "Djiboutiville", "district": "CSC", "Nom": "Urban", "Pop_rayon": 0, "Moins1": 101019, "moins5": 0, "Grossesses": 43, "Accouche": 11, "15_49ans": 38062 }, "geometry": { "type": "Point", "coordinates": [ 43.105875046681163, 11.556403426396521 ] } },
{ "type": "Feature", "properties": { "Region": "10", "Sous_prefe": "Djiboutiville", "Type": "1010", "landtype": "Djiboutiville", "district": "CSC", "Nom": "Urban", "Pop_rayon": 0, "Moins1": 101022, "moins5": 0, "Grossesses": 43, "Accouche": 11, "15_49ans": 22353 }, "geometry": { "type": "Point", "coordinates": [ 43.086753736900206, 11.569979768339712 ] } },
{ "type": "Feature", "properties": { "Region": "20", "Sous_prefe": "Arta", "Type": "2010", "landtype": "Arta", "district": "Poste de sante", "Nom": "Rural", "Pop_rayon": 0, "Moins1": 201011, "moins5": 0, "Grossesses": 42, "Accouche": 11, "15_49ans": 5210 }, "geometry": { "type": "Point", "coordinates": [ 42.86253, 11.5018 ] } },
{ "type": "Feature", "properties": { "Region": "40", "Sous_prefe": "Dikhil", "Type": "4011", "landtype": "Yoboki", "district": "Poste de sante", "Nom": "Rural", "Pop_rayon": 0, "Moins1": 401110, "moins5": 0, "Grossesses": 42, "Accouche": 11, "15_49ans": 30019 }, "geometry": { "type": "Point", "coordinates": [ 42.10719, 11.51045 ] } },
{ "type": "Feature", "properties": { "Region": "0", "Sous_prefe": "Djiboutiville", "Type": "0", "landtype": "Djiboutivill", "district": "centre de reference", "Nom": "Urban", "Pop_rayon": 0, "Moins1": 0, "moins5": 0, "Grossesses": 0, "Accouche": 0, "15_49ans": 0 }, "geometry": { "type": "Point", "coordinates": [ 43.098850937744572, 11.554413374317738 ] } },
{ "type": "Feature", "properties": { "Region": "0", "Sous_prefe": "Djiboutiville", "Type": "0", "landtype": "Djiboutiville", "district": "CSC", "Nom": "Urban", "Pop_rayon": 0, "Moins1": 0, "moins5": 0, "Grossesses": 0, "Accouche": 0, "15_49ans": 0 }, "geometry": { "type": "Point", "coordinates": [ 43.080770887071019, 11.553828736936591 ] } },
{ "type": "Feature", "properties": { "Region": "0", "Sous_prefe": "Ali Sabieh", "Type": "0", "landtype": null, "district": "Hopitale", "Nom": null, "Pop_rayon": null, "Moins1": 0, "moins5": 0, "Grossesses": 0, "Accouche": 0, "15_49ans": 0 }, "geometry": { "type": "Point", "coordinates": [ 42.695508337054399, 11.149831826903272 ] } },
{ "type": "Feature", "properties": { "Region": "0", "Sous_prefe": null, "Type": "0", "landtype": null, "district": "Hopitale", "Nom": null, "Pop_rayon": null, "Moins1": 0, "moins5": 0, "Grossesses": 0, "Accouche": 0, "15_49ans": 0 }, "geometry": { "type": "Point", "coordinates": [ 42.804565849112514, 11.53107178941824 ] } },
{ "type": "Feature", "properties": { "Region": "0", "Sous_prefe": null, "Type": "0", "landtype": null, "district": "Hopitale", "Nom": null, "Pop_rayon": null, "Moins1": 0, "moins5": 0, "Grossesses": 0, "Accouche": 0, "15_49ans": 0 }, "geometry": { "type": "Point", "coordinates": [ 43.152892113001194, 11.608442021410147 ] } },
{ "type": "Feature", "properties": { "Region": "0", "Sous_prefe": null, "Type": "0", "landtype": null, "district": "Hopitale", "Nom": null, "Pop_rayon": null, "Moins1": 0, "moins5": 0, "Grossesses": 0, "Accouche": 0, "15_49ans": 0 }, "geometry": { "type": "Point", "coordinates": [ 43.136107698983601, 11.574329211041405 ] } },
{ "type": "Feature", "properties": { "Region": "0", "Sous_prefe": null, "Type": "0", "landtype": null, "district": "Hopitale", "Nom": null, "Pop_rayon": null, "Moins1": 0, "moins5": 0, "Grossesses": 0, "Accouche": 0, "15_49ans": 0 }, "geometry": { "type": "Point", "coordinates": [ 43.112060379685751, 11.55027510112915 ] } },
{ "type": "Feature", "properties": { "Region": "0", "Sous_prefe": null, "Type": "0", "landtype": null, "district": "Hopitale", "Nom": null, "Pop_rayon": null, "Moins1": 0, "moins5": 0, "Grossesses": 0, "Accouche": 0, "15_49ans": 0 }, "geometry": { "type": "Point", "coordinates": [ 43.096379587304938, 11.558574157542999 ] } }
]
}
