{
"type": "FeatureCollection",
"name": "Wells1",
"crs": { "type": "name", "properties": { "name": "urn:ogc:def:crs:OGC:1.3:CRS84" } },
"features": [
{ "type": "Feature", "properties": { "Region": "Ali Sabieh", "Admin": "Holl-Holl", "Localite": "Holl-Holl", "Nom_pteau": "Warssama  Rou.03", "Carte": "Ali Sabieh", "Type": "Source", "Etat": "Permanent" }, "geometry": { "type": "Point", "coordinates": [ 42.878299710000135, 11.315361420000045 ] } },
{ "type": "Feature", "properties": { "Region": "Ali Sabieh", "Admin": "Holl-Holl", "Localite": "Holl-Holl", "Nom_pteau": "Warssama  Rou.04", "Carte": "Ali Sabieh", "Type": "Source", "Etat": "Permanent" }, "geometry": { "type": "Point", "coordinates": [ 42.876978640000061, 11.315677280000045 ] } },
{ "type": "Feature", "properties": { "Region": "Ali Sabieh", "Admin": "Ali Sabieh", "Localite": "Awraassa", "Nom_pteau": "Awraassa  F1", "Carte": "Ali Sabieh", "Type": "Forage", "Etat": "forage fonctionnel" }, "geometry": { "type": "Point", "coordinates": [ 42.611740980000036, 11.196002470000053 ] } },
{ "type": "Feature", "properties": { "Region": "Ali Sabieh", "Admin": "Ali Sabieh", "Localite": "Awraassa", "Nom_pteau": "Awraassa  F3", "Carte": "Ali Sabieh", "Type": "Forage", "Etat": "Forage fonctionnel" }, "geometry": { "type": "Point", "coordinates": [ 42.611740980000036, 11.196002470000053 ] } },
{ "type": "Feature", "properties": { "Region": "Ali Sabieh", "Admin": "Ali Sabieh", "Localite": "Aramadoleh", "Nom_pteau": "Aramadole F17", "Carte": "Ali Sabieh", "Type": "Forage", "Etat": "Forage négatif" }, "geometry": { "type": "Point", "coordinates": [ 42.641935720000106, 11.11202937000013 ] } },
{ "type": "Feature", "properties": { "Region": "Ali Sabieh", "Admin": "Ali Sabieh", "Localite": "Ali Sabieh", "Nom_pteau": "Doudoub Boulaleh F3", "Carte": "Djib", "Type": "Forage", "Etat": "Forage fonctionnel" }, "geometry": { "type": "Point", "coordinates": [ 42.64376647000006, 11.211773650000055 ] } },
{ "type": "Feature", "properties": { "Region": "Ali Sabieh", "Admin": "Ali Sabieh", "Localite": "Ali Sabieh", "Nom_pteau": "Hamboucta  F2", "Carte": "Djib", "Type": "Forage", "Etat": "Forage fonctionnel" }, "geometry": { "type": "Point", "coordinates": [ 42.671615359999976, 11.207781720000185 ] } },
{ "type": "Feature", "properties": { "Region": "Ali Sabieh", "Admin": "Ali Sabieh", "Localite": "Hambocta", "Nom_pteau": "Hamboucta  F1", "Carte": "Djib", "Type": "Forage", "Etat": "Forage fonctionnel" }, "geometry": { "type": "Point", "coordinates": [ 42.675453200000106, 11.182228110000096 ] } },
{ "type": "Feature", "properties": { "Region": "Ali Sabieh", "Admin": "Aramadoleh", "Localite": "Aramadoleh", "Nom_pteau": "Aramadole", "Carte": "Ali Sabieh", "Type": "Forage", "Etat": "Forage-Onead" }, "geometry": { "type": "Point", "coordinates": [ 42.677159700000061, 11.11372297000014 ] } },
{ "type": "Feature", "properties": { "Region": "Ali Sabieh", "Admin": "Ali Sabieh", "Localite": "Ali Sabieh", "Nom_pteau": "F5", "Carte": "Ali Sabieh", "Type": "Forage", "Etat": "Forage-Onead" }, "geometry": { "type": "Point", "coordinates": [ 42.69796678, 11.138310690000083 ] } },
{ "type": "Feature", "properties": { "Region": "Ali Sabieh", "Admin": "Aramadoleh", "Localite": "Aramadoleh", "Nom_pteau": "Aramadoleh F19", "Carte": "Ali Sabieh", "Type": "Forage", "Etat": "Forage fonctionnel" }, "geometry": { "type": "Point", "coordinates": [ 42.699848450000104, 11.102592320000042 ] } },
{ "type": "Feature", "properties": { "Region": "Ali Sabieh", "Admin": "Ali Sabieh", "Localite": "Ali Sabieh", "Nom_pteau": "Arkandé(F2bis)", "Carte": "Ali Sabieh", "Type": "Forage", "Etat": "Forage-Onead" }, "geometry": { "type": "Point", "coordinates": [ 42.710915770000099, 11.13831961000011 ] } },
{ "type": "Feature", "properties": { "Region": "Ali Sabieh", "Admin": "Assamo", "Localite": "Assamo", "Nom_pteau": "Assamo USA", "Carte": "Ali Sabieh", "Type": "Forage", "Etat": "Forage fonctionnel" }, "geometry": { "type": "Point", "coordinates": [ 42.83729476000002, 10.983191680000175 ] } },
{ "type": "Feature", "properties": { "Region": "Ali Sabieh", "Admin": "Ali Addé", "Localite": "Ali Sabieh", "Nom_pteau": "Assamo USA", "Carte": "Ali Sabieh", "Type": "Forage", "Etat": "Forage fonctionnel" }, "geometry": { "type": "Point", "coordinates": [ 42.838435010000069, 10.982368300000076 ] } },
{ "type": "Feature", "properties": { "Region": "Ali Sabieh", "Admin": "Assamo", "Localite": "Assamo", "Nom_pteau": "Assamo USA", "Carte": "Ali Sabieh", "Type": "Forage", "Etat": "Forage fonctionnel" }, "geometry": { "type": "Point", "coordinates": [ 42.838560690000179, 10.98143828000002 ] } },
{ "type": "Feature", "properties": { "Region": "Ali Sabieh", "Admin": "Ali Addé", "Localite": "Ali-Addé", "Nom_pteau": "Ali-Addée  F1", "Carte": "Ali Sabieh", "Type": "Forage", "Etat": "Forage négatif" }, "geometry": { "type": "Point", "coordinates": [ 42.866309000000115, 11.114974010000083 ] } },
{ "type": "Feature", "properties": { "Region": "Ali Sabieh", "Admin": "Ali Addé", "Localite": "Ali-Addé", "Nom_pteau": "Ali-Addée  F5", "Carte": "Ali Sabieh", "Type": "Forage", "Etat": "Forage fonctionnel" }, "geometry": { "type": "Point", "coordinates": [ 42.880174110000155, 11.135146010000028 ] } },
{ "type": "Feature", "properties": { "Region": "Ali Sabieh", "Admin": "Ali Addé", "Localite": "Ali-Addé", "Nom_pteau": "Ali-Addée  F3", "Carte": "Ali Sabieh", "Type": "Forage", "Etat": "Forage fonctionnel" }, "geometry": { "type": "Point", "coordinates": [ 42.881580010000107, 11.136900320000052 ] } },
{ "type": "Feature", "properties": { "Region": "Ali Sabieh", "Admin": "Ali Addé", "Localite": "Ali-Addé", "Nom_pteau": "Ali-Addée  F2", "Carte": "Ali Sabieh", "Type": "Forage", "Etat": "Forage négatif" }, "geometry": { "type": "Point", "coordinates": [ 42.881771220000132, 11.13324121 ] } },
{ "type": "Feature", "properties": { "Region": "Ali Sabieh", "Admin": "Ali Addé", "Localite": "Ali-Addé", "Nom_pteau": "Ali-Addée  F4", "Carte": "Ali Sabieh", "Type": "Forage", "Etat": "Forage fonctionnel" }, "geometry": { "type": "Point", "coordinates": [ 42.881770820000099, 11.13582613 ] } },
{ "type": "Feature", "properties": { "Region": "Ali Sabieh", "Admin": "Ali Addé", "Localite": "Ali-Addé", "Nom_pteau": "Ali-Addée  F8", "Carte": "Ali Sabieh", "Type": "Forage", "Etat": "Forage négatif" }, "geometry": { "type": "Point", "coordinates": [ 42.882515190000049, 11.139202620000162 ] } },
{ "type": "Feature", "properties": { "Region": "Ali Sabieh", "Admin": "Holl-Holl", "Localite": "Dhoureh", "Nom_pteau": "Doureh F1", "Carte": "Ali Sabieh", "Type": "Forage", "Etat": "Forage fonctionnel" }, "geometry": { "type": "Point", "coordinates": [ 42.909563220000166, 11.304241580000109 ] } },
{ "type": "Feature", "properties": { "Region": "Ali Sabieh", "Admin": "Holl-Holl", "Localite": "Holl-Holl", "Nom_pteau": "Hol-Hol   F1", "Carte": "Ali Sabieh", "Type": "Forage", "Etat": "Forage fonctionnel" }, "geometry": { "type": "Point", "coordinates": [ 42.93045633000014, 11.306196370000066 ] } },
{ "type": "Feature", "properties": { "Region": "Ali Sabieh", "Admin": "Holl-Holl", "Localite": "Hindi", "Nom_pteau": "Hindi  F2", "Carte": "Ali Sabieh", "Type": "Forage", "Etat": "Forage fonctionnel" }, "geometry": { "type": "Point", "coordinates": [ 42.946789870000089, 11.164451770000085 ] } },
{ "type": "Feature", "properties": { "Region": "Ali Sabieh", "Admin": "Ali Sabieh", "Localite": "Ali Sabieh", "Nom_pteau": "Hindi  F1 (BIS)", "Carte": "Djib", "Type": "Forage", "Etat": "Forage fonctionnel" }, "geometry": { "type": "Point", "coordinates": [ 42.945873560000166, 11.345349900000087 ] } },
{ "type": "Feature", "properties": { "Region": "Ali Sabieh", "Admin": "Holl-Holl", "Localite": "Goubetto", "Nom_pteau": "Goubetto  F1", "Carte": "Ali Sabieh", "Type": "Forage", "Etat": "Forage fonctionnel" }, "geometry": { "type": "Point", "coordinates": [ 43.003403500000104, 11.41498192 ] } },
{ "type": "Feature", "properties": { "Region": "Ali Sabieh", "Admin": "Goubetto", "Localite": "Goubetto", "Nom_pteau": "Goubetto  F2", "Carte": "Ali Sabieh", "Type": "Forage", "Etat": "Forage fonctionnel" }, "geometry": { "type": "Point", "coordinates": [ 43.004876770000124, 11.41654662000019 ] } },
{ "type": "Feature", "properties": { "Region": "Ali Sabieh", "Admin": "Holl-Holl", "Localite": "Holl-Holl", "Nom_pteau": "Behidley   F1", "Carte": "Ali Sabieh", "Type": "Forage", "Etat": "Forage fonctionnel" }, "geometry": { "type": "Point", "coordinates": [ 43.068552010000133, 11.307755310000061 ] } },
{ "type": "Feature", "properties": { "Region": "Ali Sabieh", "Admin": "Holl-Holl", "Localite": "Odowa", "Nom_pteau": "ODOWA-YAR 1", "Carte": "Ali Sabieh", "Type": "Forage", "Etat": "Piézo" }, "geometry": { "type": "Point", "coordinates": [ 43.085833410000077, 11.342216810000025 ] } },
{ "type": "Feature", "properties": { "Region": "Ali Sabieh", "Admin": "Holl-Holl", "Localite": "Kabah-Kabah", "Nom_pteau": "Kabah-Kabah F1", "Carte": "Ali Sabieh", "Type": "Forage", "Etat": "Forage négatif" }, "geometry": { "type": "Point", "coordinates": [ 43.094756880000148, 11.256085760000076 ] } },
{ "type": "Feature", "properties": { "Region": "Ali Sabieh", "Admin": "Holl-Holl", "Localite": "douda", "Nom_pteau": "E35", "Carte": "Loyada", "Type": "Forage", "Etat": "Forage fonctionnel" }, "geometry": { "type": "Point", "coordinates": [ 43.138994580000031, 11.389417090000052 ] } },
{ "type": "Feature", "properties": { "Region": "Ali Sabieh", "Admin": "Djibouti", "Localite": "Djibouti", "Nom_pteau": "GEGADA 2", "Carte": "Djib", "Type": "Forage", "Etat": "Piézo" }, "geometry": { "type": "Point", "coordinates": [ 43.140000070000099, 11.389161850000107 ] } },
{ "type": "Feature", "properties": { "Region": "Ali Sabieh", "Admin": "Holl-Holl", "Localite": "arta", "Nom_pteau": "DEY-DEY", "Carte": "Djib", "Type": "Forage", "Etat": "Forage négatif" }, "geometry": { "type": "Point", "coordinates": [ 43.168333400000108, 11.419439920000116 ] } },
{ "type": "Feature", "properties": { "Region": "Ali Sabieh", "Admin": "Holl-Holl", "Localite": "Dhoureh", "Nom_pteau": "Doureh F1", "Carte": "Ali Sabieh", "Type": "Forage", "Etat": "forage fonctionnel" }, "geometry": { "type": "Point", "coordinates": [ 42.909563220000166, 11.304241580000109 ] } },
{ "type": "Feature", "properties": { "Region": "Ali Sabieh", "Admin": "Ali Sabieh", "Localite": "Ali Sabieh", "Nom_pteau": "PUITS Communautaire 3", "Carte": "Djib", "Type": "Puits cimenté", "Etat": "Permanent" }, "geometry": { "type": "Point", "coordinates": [ 42.878299710000135, 11.315361420000045 ] } },
{ "type": "Feature", "properties": { "Region": "Ali Sabieh", "Admin": "Ali Sabieh", "Localite": "Ali Sabieh", "Nom_pteau": "PUITS Communautaire 4", "Carte": "Djib", "Type": "Puits cimenté", "Etat": "Permanent" }, "geometry": { "type": "Point", "coordinates": [ 42.876978640000061, 11.315677280000045 ] } },
{ "type": "Feature", "properties": { "Region": "Ali Sabieh", "Admin": "Ali Sabieh", "Localite": "Ali Sabieh", "Nom_pteau": "PUITS Communautaire 7", "Carte": "Djib", "Type": "Puits cimenté", "Etat": "Permanent" }, "geometry": { "type": "Point", "coordinates": [ 42.893634130000066, 11.13045972000009 ] } },
{ "type": "Feature", "properties": { "Region": "Ali Sabieh", "Admin": "Ali Sabieh", "Localite": "Aramadoleh", "Nom_pteau": "Aramadoleh 07", "Carte": "Ali Sabieh", "Type": "Puits cimenté", "Etat": "Pollué" }, "geometry": { "type": "Point", "coordinates": [ 42.697925450000128, 11.128432810000049 ] } },
{ "type": "Feature", "properties": { "Region": "Ali Sabieh", "Admin": "Ali Sabieh", "Localite": "Ali Sabieh", "Nom_pteau": "PUITS Communautaire 3", "Carte": "Djib", "Type": "Puits cimenté", "Etat": "Permanent" }, "geometry": { "type": "Point", "coordinates": [ 42.866309000000115, 11.114974010000083 ] } },
{ "type": "Feature", "properties": { "Region": "Ali Sabieh", "Admin": "Ali Sabieh", "Localite": "Ali Sabieh", "Nom_pteau": "Rahlé", "Carte": "Djib", "Type": "Puits cimenté", "Etat": "Permanent" }, "geometry": { "type": "Point", "coordinates": [ 42.857252970000104, 10.982085970000185 ] } },
{ "type": "Feature", "properties": { "Region": "Ali Sabieh", "Admin": "Ali Addé", "Localite": "Assamo", "Nom_pteau": "Dawanbah  03", "Carte": "Ali Sabieh", "Type": "Puits cimenté", "Etat": "Permanent" }, "geometry": { "type": "Point", "coordinates": [ 42.853340570000057, 11.015842660000033 ] } },
{ "type": "Feature", "properties": { "Region": "Ali Sabieh", "Admin": "Ali Sabieh", "Localite": "Ali Sabieh", "Nom_pteau": "PUITS Communautaire 3", "Carte": "Djib", "Type": "Puits cimenté", "Etat": "Permanent" }, "geometry": { "type": "Point", "coordinates": [ 42.866427300000169, 11.314643150000109 ] } },
{ "type": "Feature", "properties": { "Region": "Ali Sabieh", "Admin": "Holl-Holl", "Localite": "Holl-Holl", "Nom_pteau": "Warssama  Rou.01", "Carte": "Ali Sabieh", "Type": "Puits cimenté", "Etat": "Permanent" }, "geometry": { "type": "Point", "coordinates": [ 42.878978090000146, 11.315266870000016 ] } },
{ "type": "Feature", "properties": { "Region": "Ali Sabieh", "Admin": "Ali Sabieh", "Localite": "Ali Sabieh", "Nom_pteau": "El-Gal", "Carte": "Ali Sabieh", "Type": "Puits cimenté", "Etat": "Permanent" }, "geometry": { "type": "Point", "coordinates": [ 42.929652560000079, 11.305901510000183 ] } },
{ "type": "Feature", "properties": { "Region": "Ali Sabieh", "Admin": "Holl-Holl", "Localite": "Ali Sabieh", "Nom_pteau": "Oued Doureh(HCR)", "Carte": "Ali Sabieh", "Type": "Puits cimenté", "Etat": "Permanent" }, "geometry": { "type": "Point", "coordinates": [ 42.859598389999974, 11.277230780000082 ] } },
{ "type": "Feature", "properties": { "Region": "Ali Sabieh", "Admin": "Ali Addé", "Localite": "Ali Sabieh", "Nom_pteau": "Oued Doureh(Refugié)", "Carte": "Ali Sabieh", "Type": "Puits cimenté", "Etat": "Permanent" }, "geometry": { "type": "Point", "coordinates": [ 42.829893270000127, 11.250569870000049 ] } },
{ "type": "Feature", "properties": { "Region": "Ali Sabieh", "Admin": "Ali Sabieh", "Localite": "Ali Sabieh", "Nom_pteau": "Oued Doureh(Refugié)", "Carte": "Ali Sabieh", "Type": "Puits cimenté", "Etat": "Permanent" }, "geometry": { "type": "Point", "coordinates": [ 42.913309360000142, 11.29782380000006 ] } },
{ "type": "Feature", "properties": { "Region": "Ali Sabieh", "Admin": "Ali Sabieh", "Localite": "Ali Sabieh", "Nom_pteau": "Ahmed  Darar", "Carte": "Djib", "Type": "Puits cimenté", "Etat": "Permanent" }, "geometry": { "type": "Point", "coordinates": [ 42.902670490000048, 11.133849170000019 ] } },
{ "type": "Feature", "properties": { "Region": "Ali Sabieh", "Admin": "Assamo", "Localite": "test", "Nom_pteau": "test", "Carte": "Ali Sabieh", "Type": "Puits cimenté", "Etat": "Permanent" }, "geometry": { "type": "Point", "coordinates": [ 42.89612929000009, 10.848282970000014 ] } },
{ "type": "Feature", "properties": { "Region": "Ali Sabieh", "Admin": "Assamo", "Localite": "Assamo", "Nom_pteau": "Ahmed  Houssein 02", "Carte": "Ali Sabieh", "Type": "Puits cimenté", "Etat": "Pollué" }, "geometry": { "type": "Point", "coordinates": [ 42.853731230000051, 10.980822880000119 ] } },
{ "type": "Feature", "properties": { "Region": "Ali Sabieh", "Admin": "Holl-Holl", "Localite": "Holl-Holl", "Nom_pteau": "Ahmed  Moussa", "Carte": "Ali Sabieh", "Type": "Puits cimenté", "Etat": "Permanent" }, "geometry": { "type": "Point", "coordinates": [ 42.907705660000147, 11.305303970000125 ] } },
{ "type": "Feature", "properties": { "Region": "Ali Sabieh", "Admin": "Ali Sabieh", "Localite": "Aramadoleh", "Nom_pteau": "Ahmed Assowé 01", "Carte": "Ali Sabieh", "Type": "Puits cimenté", "Etat": "Permanent" }, "geometry": { "type": "Point", "coordinates": [ 42.69449338000004, 11.122676900000044 ] } },
{ "type": "Feature", "properties": { "Region": "Ali Sabieh", "Admin": "Ali Sabieh", "Localite": "Aramadoleh", "Nom_pteau": "Ahmed Assowé 02", "Carte": "Ali Sabieh", "Type": "Puits cimenté", "Etat": "Permanent" }, "geometry": { "type": "Point", "coordinates": [ 42.694798310000067, 11.123465470000099 ] } },
{ "type": "Feature", "properties": { "Region": "Ali Sabieh", "Admin": "Ali Sabieh", "Localite": "Ali Sabieh", "Nom_pteau": "Ahmed Cheik Ali", "Carte": "Djib", "Type": "Puits cimenté", "Etat": "Permanent" }, "geometry": { "type": "Point", "coordinates": [ 42.859073950000152, 11.277570430000139 ] } },
{ "type": "Feature", "properties": { "Region": "Ali Sabieh", "Admin": "Ali Sabieh", "Localite": "Ali Sabieh", "Nom_pteau": "Ahmed DJAMA 01", "Carte": "Djib", "Type": "Puits cimenté", "Etat": "Permanent" }, "geometry": { "type": "Point", "coordinates": [ 42.875499550000086, 10.97346524000011 ] } },
{ "type": "Feature", "properties": { "Region": "Ali Sabieh", "Admin": "Ali Sabieh", "Localite": "Ali Sabieh", "Nom_pteau": "Ahmed Elmi", "Carte": "Djib", "Type": "Puits cimenté", "Etat": "Permanent" }, "geometry": { "type": "Point", "coordinates": [ 42.864296850000073, 10.973115540000094 ] } },
{ "type": "Feature", "properties": { "Region": "Ali Sabieh", "Admin": "Ali Sabieh", "Localite": "Ali Sabieh", "Nom_pteau": "Ahmed Iltireh", "Carte": "Djib", "Type": "Puits cimenté", "Etat": "Permanent" }, "geometry": { "type": "Point", "coordinates": [ 42.698443119999979, 11.128933830000108 ] } },
{ "type": "Feature", "properties": { "Region": "Ali Sabieh", "Admin": "Ali Sabieh", "Localite": "Ali Sabieh", "Nom_pteau": "Ali  Bouh", "Carte": "Djib", "Type": "Puits cimenté", "Etat": "Permanent" }, "geometry": { "type": "Point", "coordinates": [ 42.821226300000149, 10.996470920000036 ] } },
{ "type": "Feature", "properties": { "Region": "Ali Sabieh", "Admin": "Holl-Holl", "Localite": "Dhoureh", "Nom_pteau": "Amina Farah", "Carte": "Ali Sabieh", "Type": "Puits cimenté", "Etat": "Permanent" }, "geometry": { "type": "Point", "coordinates": [ 42.841586890000087, 11.26136506000006 ] } },
{ "type": "Feature", "properties": { "Region": "Ali Sabieh", "Admin": "Ali Sabieh", "Localite": "Aramadoleh", "Nom_pteau": "Aramadoleh 01", "Carte": "Ali Sabieh", "Type": "Puits cimenté", "Etat": "Permanent" }, "geometry": { "type": "Point", "coordinates": [ 42.677652140000134, 11.115091370000187 ] } },
{ "type": "Feature", "properties": { "Region": "Ali Sabieh", "Admin": "Ali Sabieh", "Localite": "Aramadoleh", "Nom_pteau": "Aramadoleh 02", "Carte": "Ali Sabieh", "Type": "Puits cimenté", "Etat": "Permanent" }, "geometry": { "type": "Point", "coordinates": [ 42.677369990000045, 11.114899410000135 ] } },
{ "type": "Feature", "properties": { "Region": "Ali Sabieh", "Admin": "Ali Sabieh", "Localite": "Aramadoleh", "Nom_pteau": "Aramadoleh 04", "Carte": "Ali Sabieh", "Type": "Puits cimenté", "Etat": "Permanent" }, "geometry": { "type": "Point", "coordinates": [ 42.692593890000069, 11.119860780000124 ] } },
{ "type": "Feature", "properties": { "Region": "Ali Sabieh", "Admin": "Ali Sabieh", "Localite": "Aramadoleh", "Nom_pteau": "Aramadoleh 05", "Carte": "Ali Sabieh", "Type": "Puits cimenté", "Etat": "Permanent" }, "geometry": { "type": "Point", "coordinates": [ 42.692900920000113, 11.121544050000125 ] } },
{ "type": "Feature", "properties": { "Region": "Ali Sabieh", "Admin": "Ali Sabieh", "Localite": "Aramadoleh", "Nom_pteau": "Aramadoleh 06", "Carte": "Ali Sabieh", "Type": "Puits cimenté", "Etat": "Permanent" }, "geometry": { "type": "Point", "coordinates": [ 42.694279250000079, 11.121979390000092 ] } },
{ "type": "Feature", "properties": { "Region": "Ali Sabieh", "Admin": "Ali Sabieh", "Localite": "Aramadoleh", "Nom_pteau": "Aramadoleh 08", "Carte": "Ali Sabieh", "Type": "Puits cimenté", "Etat": "Permanent" }, "geometry": { "type": "Point", "coordinates": [ 42.698024550000184, 11.127466600000048 ] } },
{ "type": "Feature", "properties": { "Region": "Ali Sabieh", "Admin": "Ali Sabieh", "Localite": "Aramadoleh", "Nom_pteau": "Aramadoleh 09", "Carte": "Ali Sabieh", "Type": "Puits cimenté", "Etat": "Permanent" }, "geometry": { "type": "Point", "coordinates": [ 42.699617660000172, 11.102852630000086 ] } },
{ "type": "Feature", "properties": { "Region": "Ali Sabieh", "Admin": "Assamo", "Localite": "Assamo", "Nom_pteau": "Assamo  02", "Carte": "Ali Sabieh", "Type": "Puits cimenté", "Etat": "Permanent" }, "geometry": { "type": "Point", "coordinates": [ 42.838435010000069, 10.982368300000076 ] } },
{ "type": "Feature", "properties": { "Region": "Ali Sabieh", "Admin": "Ali Addé", "Localite": "Assamo", "Nom_pteau": "Assamo  05", "Carte": "Ali Sabieh", "Type": "Puits cimenté", "Etat": "Permanent" }, "geometry": { "type": "Point", "coordinates": [ 42.831535860000145, 10.986422330000153 ] } },
{ "type": "Feature", "properties": { "Region": "Ali Sabieh", "Admin": "Holl-Holl", "Localite": "Faradil", "Nom_pteau": "Byo-KOULOULEH  (Faradil 01", "Carte": "Ali Sabieh", "Type": "Puits cimenté", "Etat": "Permanent" }, "geometry": { "type": "Point", "coordinates": [ 42.801473850000036, 11.2374006 ] } },
{ "type": "Feature", "properties": { "Region": "Ali Sabieh", "Admin": "Holl-Holl", "Localite": "Faradil", "Nom_pteau": "Byo-KOULOULEH  (Faradil 02", "Carte": "Ali Sabieh", "Type": "Puits cimenté", "Etat": "Permanent" }, "geometry": { "type": "Point", "coordinates": [ 42.801150110000094, 11.228170750000174 ] } },
{ "type": "Feature", "properties": { "Region": "Ali Sabieh", "Admin": "Holl-Holl", "Localite": "Faradil", "Nom_pteau": "Byo-KOULOULEH  (Faradil 03", "Carte": "Ali Sabieh", "Type": "Puits cimenté", "Etat": "Permanent" }, "geometry": { "type": "Point", "coordinates": [ 42.798031350000144, 11.225364060000118 ] } },
{ "type": "Feature", "properties": { "Region": "Ali Sabieh", "Admin": "Holl-Holl", "Localite": "Dasbiyo", "Nom_pteau": "Byo-KOULOULEH  (Faradil 04", "Carte": "Ali Sabieh", "Type": "Puits cimenté", "Etat": "Permanent" }, "geometry": { "type": "Point", "coordinates": [ 42.79606744, 11.252507590000107 ] } },
{ "type": "Feature", "properties": { "Region": "Ali Sabieh", "Admin": "Ali Sabieh", "Localite": "Aramadoleh", "Nom_pteau": "Chireh Nour", "Carte": "Ali Sabieh", "Type": "Puits cimenté", "Etat": "Permanent" }, "geometry": { "type": "Point", "coordinates": [ 42.694201500000077, 11.122557170000107 ] } },
{ "type": "Feature", "properties": { "Region": "Ali Sabieh", "Admin": "Ali Sabieh", "Localite": "Ali Sabieh", "Nom_pteau": "Comm. Adjoint", "Carte": "Ali Sabieh", "Type": "Puits cimenté", "Etat": "Permanent" }, "geometry": { "type": "Point", "coordinates": [ 42.694672480000122, 11.123175310000079 ] } },
{ "type": "Feature", "properties": { "Region": "Ali Sabieh", "Admin": "Ali Sabieh", "Localite": "Ali Sabieh", "Nom_pteau": "Dah-Dalol", "Carte": "Ali Sabieh", "Type": "Puits cimenté", "Etat": "Permanent" }, "geometry": { "type": "Point", "coordinates": [ 42.920748679999974, 11.285909529999969 ] } },
{ "type": "Feature", "properties": { "Region": "Ali Sabieh", "Admin": "Assamo", "Localite": "Assamo", "Nom_pteau": "Daher  Obsieh", "Carte": "Ali Sabieh", "Type": "Puits cimenté", "Etat": "Permanent" }, "geometry": { "type": "Point", "coordinates": [ 42.857458840000049, 10.982711059999986 ] } },
{ "type": "Feature", "properties": { "Region": "Ali Sabieh", "Admin": "Assamo", "Localite": "Assamo", "Nom_pteau": "Daher Okieh", "Carte": "Ali Sabieh", "Type": "Puits cimenté", "Etat": "Permanent" }, "geometry": { "type": "Point", "coordinates": [ 42.875205850000157, 10.972324370000024 ] } },
{ "type": "Feature", "properties": { "Region": "Ali Sabieh", "Admin": "Ali Addé", "Localite": "DANAN", "Nom_pteau": "DANAN", "Carte": "Ali Sabieh", "Type": "Puits cimenté", "Etat": "Permanent" }, "geometry": { "type": "Point", "coordinates": [ 42.890226590000054, 11.130869590000088 ] } },
{ "type": "Feature", "properties": { "Region": "Ali Sabieh", "Admin": "Ali Addé", "Localite": "Assamo", "Nom_pteau": "Dawanbah  04", "Carte": "Ali Sabieh", "Type": "Puits cimenté", "Etat": "Pollué" }, "geometry": { "type": "Point", "coordinates": [ 42.867236160000118, 11.013410210000075 ] } },
{ "type": "Feature", "properties": { "Region": "Ali Sabieh", "Admin": "Ali Sabieh", "Localite": "Ali Sabieh", "Nom_pteau": "Djama  Farah", "Carte": "Djib", "Type": "Puits cimenté", "Etat": "Pollué" }, "geometry": { "type": "Point", "coordinates": [ 42.838628670000105, 10.982152770000027 ] } },
{ "type": "Feature", "properties": { "Region": "Ali Sabieh", "Admin": "Ali Addé", "Localite": "Doussagoudmoune", "Nom_pteau": "Doussagoudmoun 01", "Carte": "Ali Sabieh", "Type": "Puits cimenté", "Etat": "Permanent" }, "geometry": { "type": "Point", "coordinates": [ 42.877278760000024, 11.025212380000085 ] } },
{ "type": "Feature", "properties": { "Region": "Ali Sabieh", "Admin": "Ali Sabieh", "Localite": "Ali Sabieh", "Nom_pteau": "El-Gal", "Carte": "Ali Sabieh", "Type": "Puits cimenté", "Etat": "Permanent" }, "geometry": { "type": "Point", "coordinates": [ 42.922038810000174, 11.105151650000039 ] } },
{ "type": "Feature", "properties": { "Region": "Ali Sabieh", "Admin": "Ali Sabieh", "Localite": "Ali Sabieh", "Nom_pteau": "Farah  Saleh", "Carte": "Djib", "Type": "Puits cimenté", "Etat": "Permanent" }, "geometry": { "type": "Point", "coordinates": [ 42.825497350000035, 10.990346760000136 ] } },
{ "type": "Feature", "properties": { "Region": "Ali Sabieh", "Admin": "Assamo", "Localite": "Assamo", "Nom_pteau": "Farhan A. Houssein", "Carte": "Ali Sabieh", "Type": "Puits cimenté", "Etat": "Permanent" }, "geometry": { "type": "Point", "coordinates": [ 42.853944160000083, 10.9804719 ] } },
{ "type": "Feature", "properties": { "Region": "Ali Sabieh", "Admin": "Ali Sabieh", "Localite": "Ali Sabieh", "Nom_pteau": "Gite d’Etape 01", "Carte": "Ali Sabieh", "Type": "Puits cimenté", "Etat": "Permanent" }, "geometry": { "type": "Point", "coordinates": [ 42.731673260000036, 11.147487790000184 ] } },
{ "type": "Feature", "properties": { "Region": "Ali Sabieh", "Admin": "Holl-Holl", "Localite": "Guistir", "Nom_pteau": "Guistir", "Carte": "Ali Sabieh", "Type": "Puits cimenté", "Etat": "Permanent" }, "geometry": { "type": "Point", "coordinates": [ 42.962378150000063, 11.009907690000148 ] } },
{ "type": "Feature", "properties": { "Region": "Ali Sabieh", "Admin": "Ali Sabieh", "Localite": "Hambocta", "Nom_pteau": "Hambocta  01", "Carte": "Djib", "Type": "Puits cimenté", "Etat": "Permanent" }, "geometry": { "type": "Point", "coordinates": [ 42.6754671, 11.182779470000071 ] } },
{ "type": "Feature", "properties": { "Region": "Ali Sabieh", "Admin": "Ali Addé", "Localite": "Assamo", "Nom_pteau": "Harbi  Samriyeh", "Carte": "Djib", "Type": "Puits cimenté", "Etat": "Permanent" }, "geometry": { "type": "Point", "coordinates": [ 42.87740846000014, 11.13537950000017 ] } },
{ "type": "Feature", "properties": { "Region": "Ali Sabieh", "Admin": "Ali Sabieh", "Localite": "Hambocta", "Nom_pteau": "Hassan Darar", "Carte": "Ali Sabieh", "Type": "Puits cimenté", "Etat": "Permanent" }, "geometry": { "type": "Point", "coordinates": [ 42.675453200000106, 11.182228110000096 ] } },
{ "type": "Feature", "properties": { "Region": "Ali Sabieh", "Admin": "Ali Sabieh", "Localite": "Dasbiyo", "Nom_pteau": "HOCH BARRE", "Carte": "Ali Sabieh", "Type": "Puits cimenté", "Etat": "Permanent" }, "geometry": { "type": "Point", "coordinates": [ 42.828670250000187, 10.9892668600001 ] } },
{ "type": "Feature", "properties": { "Region": "Ali Sabieh", "Admin": "Assamo", "Localite": "Assamo", "Nom_pteau": "Houssein  Hildid", "Carte": "Ali Sabieh", "Type": "Puits cimenté", "Etat": "Permanent" }, "geometry": { "type": "Point", "coordinates": [ 42.860548890000132, 10.981684430000143 ] } },
{ "type": "Feature", "properties": { "Region": "Ali Sabieh", "Admin": "Assamo", "Localite": "Assamo", "Nom_pteau": "Houssein Hildid(chef de village d’Assamo)", "Carte": "Ali Sabieh", "Type": "Puits cimenté", "Etat": "Permanent" }, "geometry": { "type": "Point", "coordinates": [ 42.860557970000173, 10.98169353000003 ] } },
{ "type": "Feature", "properties": { "Region": "Ali Sabieh", "Admin": "Assamo", "Localite": "Assamo", "Nom_pteau": "Ibrahim  Allaleh  01", "Carte": "Ali Sabieh", "Type": "Puits cimenté", "Etat": "Permanent" }, "geometry": { "type": "Point", "coordinates": [ 42.836775040000191, 10.981705740000166 ] } },
{ "type": "Feature", "properties": { "Region": "Ali Sabieh", "Admin": "Assamo", "Localite": "Assamo", "Nom_pteau": "Ibrahim  Allaleh  02", "Carte": "Ali Sabieh", "Type": "Puits cimenté", "Etat": "Permanent" }, "geometry": { "type": "Point", "coordinates": [ 42.83555972, 10.981534389999979 ] } },
{ "type": "Feature", "properties": { "Region": "Ali Sabieh", "Admin": "Ali Sabieh", "Localite": "Hambocta", "Nom_pteau": "Ibrahim Dideh  03", "Carte": "Ali Sabieh", "Type": "Puits cimenté", "Etat": "Permanent" }, "geometry": { "type": "Point", "coordinates": [ 42.674707420000061, 11.183930280000084 ] } },
{ "type": "Feature", "properties": { "Region": "Ali Sabieh", "Admin": "Ali Sabieh", "Localite": "Hambocta", "Nom_pteau": "Idriss Harbi", "Carte": "Ali Sabieh", "Type": "Puits cimenté", "Etat": "Permanent" }, "geometry": { "type": "Point", "coordinates": [ 42.676108890000194, 11.181492190000142 ] } },
{ "type": "Feature", "properties": { "Region": "Ali Sabieh", "Admin": "Ali Sabieh", "Localite": "Ile  Jano", "Nom_pteau": "Ile Jano  01", "Carte": "Ali Sabieh", "Type": "Puits cimenté", "Etat": "Permanent" }, "geometry": { "type": "Point", "coordinates": [ 42.701657930000067, 11.149554140000077 ] } },
{ "type": "Feature", "properties": { "Region": "Ali Sabieh", "Admin": "Ali Sabieh", "Localite": "Ile  Jano", "Nom_pteau": "Ile Jano  03", "Carte": "Ali Sabieh", "Type": "Puits cimenté", "Etat": "Permanent" }, "geometry": { "type": "Point", "coordinates": [ 42.701749370000186, 11.149563880000187 ] } },
{ "type": "Feature", "properties": { "Region": "Ali Sabieh", "Admin": "Ali Sabieh", "Localite": "Ile  Jano", "Nom_pteau": "Iltireh Elay", "Carte": "Ali Sabieh", "Type": "Puits cimenté", "Etat": "Permanent" }, "geometry": { "type": "Point", "coordinates": [ 42.700860780000028, 11.121704600000101 ] } },
{ "type": "Feature", "properties": { "Region": "Ali Sabieh", "Admin": "Ali Sabieh", "Localite": "Ali Sabieh", "Nom_pteau": "Ismin  Said A", "Carte": "Djib", "Type": "Puits cimenté", "Etat": "Permanent" }, "geometry": { "type": "Point", "coordinates": [ 42.834291370000074, 10.9861256800001 ] } },
{ "type": "Feature", "properties": { "Region": "Ali Sabieh", "Admin": "Ali Sabieh", "Localite": "Ali Sabieh", "Nom_pteau": "Kassim Ali Wabari", "Carte": "Ali Sabieh", "Type": "Puits cimenté", "Etat": "Permanent" }, "geometry": { "type": "Point", "coordinates": [ 42.845212540000034, 11.26506987 ] } },
{ "type": "Feature", "properties": { "Region": "Ali Sabieh", "Admin": "Ali Sabieh", "Localite": "Ali Sabieh", "Nom_pteau": "Mahmoud  Bouraleh", "Carte": "Djib", "Type": "Puits cimenté", "Etat": "Permanent" }, "geometry": { "type": "Point", "coordinates": [ 42.830439300000194, 10.986269880000123 ] } },
{ "type": "Feature", "properties": { "Region": "Ali Sabieh", "Admin": "Assamo", "Localite": "Assamo", "Nom_pteau": "Mahmoud  ELMI", "Carte": "Ali Sabieh", "Type": "Puits cimenté", "Etat": "Permanent" }, "geometry": { "type": "Point", "coordinates": [ 42.859846760000096, 10.982646559999978 ] } },
{ "type": "Feature", "properties": { "Region": "Ali Sabieh", "Admin": "Ali Addé", "Localite": "Ali-Addé", "Nom_pteau": "Midgan", "Carte": "Ali Sabieh", "Type": "Puits cimenté", "Etat": "Permanent" }, "geometry": { "type": "Point", "coordinates": [ 42.869181690000119, 11.117615460000138 ] } },
{ "type": "Feature", "properties": { "Region": "Ali Sabieh", "Admin": "Ali Addé", "Localite": "Midgan", "Nom_pteau": "Midgan  01", "Carte": "Ali Sabieh", "Type": "Puits cimenté", "Etat": "Pollué" }, "geometry": { "type": "Point", "coordinates": [ 42.866225460000123, 11.115136099999972 ] } },
{ "type": "Feature", "properties": { "Region": "Ali Sabieh", "Admin": "Assamo", "Localite": "Assamo", "Nom_pteau": "Mohamed  Waiss", "Carte": "Ali Sabieh", "Type": "Puits cimenté", "Etat": "Permanent" }, "geometry": { "type": "Point", "coordinates": [ 42.857527760000096, 10.982033690000094 ] } },
{ "type": "Feature", "properties": { "Region": "Ali Sabieh", "Admin": "Assamo", "Localite": "Assamo", "Nom_pteau": "Mohamed Wais Elmi", "Carte": "Ali Sabieh", "Type": "Puits cimenté", "Etat": "Permanent" }, "geometry": { "type": "Point", "coordinates": [ 42.865104350000081, 10.971485310000048 ] } },
{ "type": "Feature", "properties": { "Region": "Ali Sabieh", "Admin": "Holl-Holl", "Localite": "Mouloud", "Nom_pteau": "Molid  01", "Carte": "Ali Sabieh", "Type": "Puits cimenté", "Etat": "Permanent" }, "geometry": { "type": "Point", "coordinates": [ 42.819464020000169, 11.113634080000054 ] } },
{ "type": "Feature", "properties": { "Region": "Ali Sabieh", "Admin": "Ali Addé", "Localite": "Ali-Addé", "Nom_pteau": "Moussa  Djama", "Carte": "Ali Sabieh", "Type": "Puits cimenté", "Etat": "Permanent" }, "geometry": { "type": "Point", "coordinates": [ 42.899755010000092, 11.133277410000176 ] } },
{ "type": "Feature", "properties": { "Region": "Ali Sabieh", "Admin": "Ali Sabieh", "Localite": "Hambocta", "Nom_pteau": "Moussa  Guerreh", "Carte": "Ali Sabieh", "Type": "Puits cimenté", "Etat": "Permanent" }, "geometry": { "type": "Point", "coordinates": [ 42.676675070000101, 11.17935484000003 ] } },
{ "type": "Feature", "properties": { "Region": "Ali Sabieh", "Admin": "Assamo", "Localite": "Assamo", "Nom_pteau": "Moussa  Kayad  01", "Carte": "Ali Sabieh", "Type": "Puits cimenté", "Etat": "Permanent" }, "geometry": { "type": "Point", "coordinates": [ 42.852965, 10.980528240000069 ] } },
{ "type": "Feature", "properties": { "Region": "Ali Sabieh", "Admin": "Ali Addé", "Localite": "Ali-Addé", "Nom_pteau": "Nakhal   01", "Carte": "Ali Sabieh", "Type": "Puits cimenté", "Etat": "Pollué" }, "geometry": { "type": "Point", "coordinates": [ 42.874080490000097, 11.153802690000077 ] } },
{ "type": "Feature", "properties": { "Region": "Ali Sabieh", "Admin": "Ali Addé", "Localite": "Ali-Addé", "Nom_pteau": "Nakhal   02", "Carte": "Ali Sabieh", "Type": "Puits cimenté", "Etat": "Pollué" }, "geometry": { "type": "Point", "coordinates": [ 42.87419796000006, 11.154011400000115 ] } },
{ "type": "Feature", "properties": { "Region": "Ali Sabieh", "Admin": "Ali Addé", "Localite": "Ali-Addé", "Nom_pteau": "Nakhal   03", "Carte": "Ali Sabieh", "Type": "Puits cimenté", "Etat": "Permanent" }, "geometry": { "type": "Point", "coordinates": [ 42.87970888000001, 11.134934839999971 ] } },
{ "type": "Feature", "properties": { "Region": "Ali Sabieh", "Admin": "Assamo", "Localite": "Assamo", "Nom_pteau": "Neima  Said   02", "Carte": "Ali Sabieh", "Type": "Puits cimenté", "Etat": "Pollué" }, "geometry": { "type": "Point", "coordinates": [ 42.849844170000097, 10.98201551 ] } },
{ "type": "Feature", "properties": { "Region": "Ali Sabieh", "Admin": "Assamo", "Localite": "Assamo", "Nom_pteau": "Neima Said", "Carte": "Ali Sabieh", "Type": "Puits cimenté", "Etat": "Permanent" }, "geometry": { "type": "Point", "coordinates": [ 42.849914860000069, 10.982359460000055 ] } },
{ "type": "Feature", "properties": { "Region": "Ali Sabieh", "Admin": "Holl-Holl", "Localite": "Dhoureh", "Nom_pteau": "Omar Ismael", "Carte": "Ali Sabieh", "Type": "Puits cimenté", "Etat": "Permanent" }, "geometry": { "type": "Point", "coordinates": [ 42.860005670000135, 11.277875420000157 ] } },
{ "type": "Feature", "properties": { "Region": "Ali Sabieh", "Admin": "Ali Addé", "Localite": "Ali-Addé", "Nom_pteau": "Osman  Barareyeh", "Carte": "Ali Sabieh", "Type": "Puits cimenté", "Etat": "Pollué" }, "geometry": { "type": "Point", "coordinates": [ 42.897823400000107, 11.132070819999967 ] } },
{ "type": "Feature", "properties": { "Region": "Ali Sabieh", "Admin": "Holl-Holl", "Localite": "Dhoureh", "Nom_pteau": "Osman Ali", "Carte": "Ali Sabieh", "Type": "Puits cimenté", "Etat": "Permanent" }, "geometry": { "type": "Point", "coordinates": [ 42.836544020000076, 11.25741491000008 ] } },
{ "type": "Feature", "properties": { "Region": "Ali Sabieh", "Admin": "Ali Sabieh", "Localite": "Ali Sabieh", "Nom_pteau": "Osman Obsieeh", "Carte": "Ali Sabieh", "Type": "Puits cimenté", "Etat": "Permanent" }, "geometry": { "type": "Point", "coordinates": [ 42.731766700000094, 11.148419350000154 ] } },
{ "type": "Feature", "properties": { "Region": "Ali Sabieh", "Admin": "Ali Sabieh", "Localite": "Ali Sabieh", "Nom_pteau": "P. Comm. 06", "Carte": "Ali Sabieh", "Type": "Puits cimenté", "Etat": "Permanent" }, "geometry": { "type": "Point", "coordinates": [ 42.909753060000071, 11.302055670000129 ] } },
{ "type": "Feature", "properties": { "Region": "Ali Sabieh", "Admin": "Ali Addé", "Localite": "Kabah-Kabah", "Nom_pteau": "P. de Jardin  04", "Carte": "Ali Sabieh", "Type": "Puits cimenté", "Etat": "Permanent" }, "geometry": { "type": "Point", "coordinates": [ 42.995624159999977, 11.226996800000052 ] } },
{ "type": "Feature", "properties": { "Region": "Ali Sabieh", "Admin": "Ali Sabieh", "Localite": "Hambocta", "Nom_pteau": "Puits Commun. 05", "Carte": "Ali Sabieh", "Type": "Puits cimenté", "Etat": "Permanent" }, "geometry": { "type": "Point", "coordinates": [ 42.674487400000146, 11.186269130000142 ] } },
{ "type": "Feature", "properties": { "Region": "Ali Sabieh", "Admin": "Ali Sabieh", "Localite": "Hambocta", "Nom_pteau": "Puits Commun. 06", "Carte": "Ali Sabieh", "Type": "Puits cimenté", "Etat": "Permanent" }, "geometry": { "type": "Point", "coordinates": [ 42.674367700000175, 11.187506260000191 ] } },
{ "type": "Feature", "properties": { "Region": "Ali Sabieh", "Admin": "Ali Addé", "Localite": "Ali-Addé", "Nom_pteau": "Puits communautaire  06", "Carte": "Ali Sabieh", "Type": "Puits cimenté", "Etat": "Permanent" }, "geometry": { "type": "Point", "coordinates": [ 42.89570111, 11.130655 ] } },
{ "type": "Feature", "properties": { "Region": "Ali Sabieh", "Admin": "Ali Addé", "Localite": "Ali-Addé", "Nom_pteau": "Puits communautaire (Ali-Addée  1", "Carte": "Ali Sabieh", "Type": "Puits cimenté", "Etat": "Permanent" }, "geometry": { "type": "Point", "coordinates": [ 42.89779607, 11.132052550000083 ] } },
{ "type": "Feature", "properties": { "Region": "Ali Sabieh", "Admin": "Holl-Holl", "Localite": "Ali-Addé", "Nom_pteau": "Puits communautaire (Ali-Addée  2", "Carte": "Ali Sabieh", "Type": "Puits cimenté", "Etat": "Permanent" }, "geometry": { "type": "Point", "coordinates": [ 42.905881340000178, 11.137911740000106 ] } },
{ "type": "Feature", "properties": { "Region": "Ali Sabieh", "Admin": "Holl-Holl", "Localite": "Holl-Holl", "Nom_pteau": "Puits communautaire 04", "Carte": "Ali Sabieh", "Type": "Puits cimenté", "Etat": "Permanent" }, "geometry": { "type": "Point", "coordinates": [ 42.913355220000028, 11.297815080000078 ] } },
{ "type": "Feature", "properties": { "Region": "Ali Sabieh", "Admin": "Ali Addé", "Localite": "Ali-Addé", "Nom_pteau": "Puits communautaire 05", "Carte": "Ali Sabieh", "Type": "Puits cimenté", "Etat": "Permanent" }, "geometry": { "type": "Point", "coordinates": [ 42.896313040000052, 11.130831020000073 ] } },
{ "type": "Feature", "properties": { "Region": "Ali Sabieh", "Admin": "Holl-Holl", "Localite": "Holl-Holl", "Nom_pteau": "Puits communautaire 05", "Carte": "Ali Sabieh", "Type": "Puits cimenté", "Etat": "Pollué" }, "geometry": { "type": "Point", "coordinates": [ 42.910291120000181, 11.30110142 ] } },
{ "type": "Feature", "properties": { "Region": "Ali Sabieh", "Admin": "Holl-Holl", "Localite": "Holl-Holl", "Nom_pteau": "Puits communautaire 07", "Carte": "Ali Sabieh", "Type": "Puits cimenté", "Etat": "Permanent" }, "geometry": { "type": "Point", "coordinates": [ 42.91059682000008, 11.303146230000095 ] } },
{ "type": "Feature", "properties": { "Region": "Ali Sabieh", "Admin": "Ali Addé", "Localite": "Ali-Addé", "Nom_pteau": "Puits communautaire 08", "Carte": "Ali Sabieh", "Type": "Puits cimenté", "Etat": "Permanent" }, "geometry": { "type": "Point", "coordinates": [ 42.891507720000163, 11.129622290000043 ] } },
{ "type": "Feature", "properties": { "Region": "Ali Sabieh", "Admin": "Holl-Holl", "Localite": "Holl-Holl", "Nom_pteau": "Puits communautaire 08", "Carte": "Ali Sabieh", "Type": "Puits cimenté", "Etat": "Permanent" }, "geometry": { "type": "Point", "coordinates": [ 42.903596740000125, 11.307425930000022 ] } },
{ "type": "Feature", "properties": { "Region": "Ali Sabieh", "Admin": "Holl-Holl", "Localite": "Holl-Holl", "Nom_pteau": "Puits communautaire 09", "Carte": "Ali Sabieh", "Type": "Puits cimenté", "Etat": "Permanent" }, "geometry": { "type": "Point", "coordinates": [ 42.903521370000135, 11.307714610000062 ] } },
{ "type": "Feature", "properties": { "Region": "Ali Sabieh", "Admin": "Ali Addé", "Localite": "Ali-Addé", "Nom_pteau": "Puits communautaire 12", "Carte": "Ali Sabieh", "Type": "Puits cimenté", "Etat": "Permanent" }, "geometry": { "type": "Point", "coordinates": [ 42.887786750000146, 11.132886 ] } },
{ "type": "Feature", "properties": { "Region": "Ali Sabieh", "Admin": "Holl-Holl", "Localite": "Holl-Holl", "Nom_pteau": "Puits communautaire 12", "Carte": "Ali Sabieh", "Type": "Puits cimenté", "Etat": "Permanent" }, "geometry": { "type": "Point", "coordinates": [ 42.90793981000013, 11.312156600000094 ] } },
{ "type": "Feature", "properties": { "Region": "Ali Sabieh", "Admin": "Ali Addé", "Localite": "Ali-Addé", "Nom_pteau": "Puits communautaire 13", "Carte": "Ali Sabieh", "Type": "Puits cimenté", "Etat": "Permanent" }, "geometry": { "type": "Point", "coordinates": [ 42.887010990000078, 11.135122 ] } },
{ "type": "Feature", "properties": { "Region": "Ali Sabieh", "Admin": "Holl-Holl", "Localite": "Holl-Holl", "Nom_pteau": "Puits communautaire 14", "Carte": "Ali Sabieh", "Type": "Puits cimenté", "Etat": "Permanent" }, "geometry": { "type": "Point", "coordinates": [ 42.963673720000145, 11.374505160000126 ] } },
{ "type": "Feature", "properties": { "Region": "Ali Sabieh", "Admin": "Ali Sabieh", "Localite": "Ali-Addé", "Nom_pteau": "Puits communautaire 15", "Carte": "Ali Sabieh", "Type": "Puits cimenté", "Etat": "Pollué" }, "geometry": { "type": "Point", "coordinates": [ 42.881771220000132, 11.13324121 ] } },
{ "type": "Feature", "properties": { "Region": "Ali Sabieh", "Admin": "Ali Addé", "Localite": "Ali-Addé", "Nom_pteau": "Puits communautaire 16", "Carte": "Ali Sabieh", "Type": "Puits cimenté", "Etat": "Permanent" }, "geometry": { "type": "Point", "coordinates": [ 42.882600810000042, 11.132424600000093 ] } },
{ "type": "Feature", "properties": { "Region": "Ali Sabieh", "Admin": "Ali Addé", "Localite": "Ali-Addé", "Nom_pteau": "Puits communautaire 17", "Carte": "Ali Sabieh", "Type": "Puits cimenté", "Etat": "Permanent" }, "geometry": { "type": "Point", "coordinates": [ 42.882419350000134, 11.132206409999981 ] } },
{ "type": "Feature", "properties": { "Region": "Ali Sabieh", "Admin": "Ali Sabieh", "Localite": "Ali Sabieh", "Nom_pteau": "PUITS Communautaire 2", "Carte": "Djib", "Type": "Puits cimenté", "Etat": "Permanent" }, "geometry": { "type": "Point", "coordinates": [ 42.824895180000112, 10.990134570000123 ] } },
{ "type": "Feature", "properties": { "Region": "Ali Sabieh", "Admin": "Ali Sabieh", "Localite": "Ali Sabieh", "Nom_pteau": "PUITS Communautaire 2", "Carte": "Djib", "Type": "Puits cimenté", "Etat": "Permanent" }, "geometry": { "type": "Point", "coordinates": [ 42.962504370000033, 11.010179690000086 ] } },
{ "type": "Feature", "properties": { "Region": "Ali Sabieh", "Admin": "Ali Sabieh", "Localite": "Ali Sabieh", "Nom_pteau": "PUITS Communautaire 4", "Carte": "Djib", "Type": "Puits cimenté", "Etat": "Permanent" }, "geometry": { "type": "Point", "coordinates": [ 42.868667290000189, 11.316376560000037 ] } },
{ "type": "Feature", "properties": { "Region": "Ali Sabieh", "Admin": "Holl-Holl", "Localite": "Holl-Holl", "Nom_pteau": "Puits communautaire11", "Carte": "Ali Sabieh", "Type": "Puits cimenté", "Etat": "Permanent" }, "geometry": { "type": "Point", "coordinates": [ 42.931098850000183, 11.305992990000107 ] } },
{ "type": "Feature", "properties": { "Region": "Ali Sabieh", "Admin": "Holl-Holl", "Localite": "Holl-Holl", "Nom_pteau": "Puits. Communautaire. 13", "Carte": "Ali Sabieh", "Type": "Puits cimenté", "Etat": "Permanent" }, "geometry": { "type": "Point", "coordinates": [ 42.907146890000092, 11.312892110000178 ] } },
{ "type": "Feature", "properties": { "Region": "Ali Sabieh", "Admin": "Assamo", "Localite": "Assamo", "Nom_pteau": "Said  Hassan   01", "Carte": "Ali Sabieh", "Type": "Puits cimenté", "Etat": "Pollué" }, "geometry": { "type": "Point", "coordinates": [ 42.836250520000135, 10.98213583 ] } },
{ "type": "Feature", "properties": { "Region": "Ali Sabieh", "Admin": "Assamo", "Localite": "Assamo", "Nom_pteau": "Said  Hassan   02", "Carte": "Ali Sabieh", "Type": "Puits cimenté", "Etat": "Permanent" }, "geometry": { "type": "Point", "coordinates": [ 42.834671370000081, 10.981681700000081 ] } },
{ "type": "Feature", "properties": { "Region": "Ali Sabieh", "Admin": "Ali Sabieh", "Localite": "Hambocta", "Nom_pteau": "Said Ali Boulaleh 02", "Carte": "Ali Sabieh", "Type": "Puits cimenté", "Etat": "Permanent" }, "geometry": { "type": "Point", "coordinates": [ 42.675365780000163, 11.182860010000127 ] } },
{ "type": "Feature", "properties": { "Region": "Ali Sabieh", "Admin": "Ali Sabieh", "Localite": "Holl-Holl", "Nom_pteau": "Warssama  Rou.02", "Carte": "Ali Sabieh", "Type": "Puits cimenté", "Etat": "Permanent" }, "geometry": { "type": "Point", "coordinates": [ 42.879878700000063, 11.314839520000021 ] } },
{ "type": "Feature", "properties": { "Region": "Ali Sabieh", "Admin": "Ali Sabieh", "Localite": "Ali Sabieh", "Nom_pteau": "P. de Jardin  03", "Carte": "Djib", "Type": "Puits cimenté", "Etat": "Permanent" }, "geometry": { "type": "Point", "coordinates": [ 42.990678480000042, 11.225905899999987 ] } },
{ "type": "Feature", "properties": { "Region": "Ali Sabieh", "Admin": "Ali Addé", "Localite": "Ali-Addé", "Nom_pteau": "Puits communautaire 10", "Carte": "Ali Sabieh", "Type": "Puits cimenté", "Etat": "Permanent" }, "geometry": { "type": "Point", "coordinates": [ 42.890428910000082, 11.130735439999967 ] } },
{ "type": "Feature", "properties": { "Region": "Ali Sabieh", "Admin": "Ali Addé", "Localite": "Assamo", "Nom_pteau": "Dawanbah  02", "Carte": "Ali Sabieh", "Type": "Puits cimenté", "Etat": "Permanent" }, "geometry": { "type": "Point", "coordinates": [ 42.848508640000091, 11.047495690000176 ] } },
{ "type": "Feature", "properties": { "Region": "Ali Sabieh", "Admin": "Ali Addé", "Localite": "Guistir", "Nom_pteau": "Guistir   02", "Carte": "Ali Sabieh", "Type": "Puits cimenté", "Etat": "Permanent" }, "geometry": { "type": "Point", "coordinates": [ 42.962504370000033, 11.010179690000086 ] } },
{ "type": "Feature", "properties": { "Region": "Ali Sabieh", "Admin": "Assamo", "Localite": "Godaawo", "Nom_pteau": "Godaawo", "Carte": "Ali Sabieh", "Type": "Puits cimenté", "Etat": "Permanent" }, "geometry": { "type": "Point", "coordinates": [ 42.8460117300001, 11.052394560000153 ] } },
{ "type": "Feature", "properties": { "Region": "Ali Sabieh", "Admin": "arta", "Localite": "arta", "Nom_pteau": "P. Comm.  14", "Carte": "Djib", "Type": "Puits cimenté", "Etat": "Permanent" }, "geometry": { "type": "Point", "coordinates": [ 42.880326100000104, 11.134378840000181 ] } },
{ "type": "Feature", "properties": { "Region": "Ali Sabieh", "Admin": "arta", "Localite": "arta", "Nom_pteau": "PUITS Communautaire 2", "Carte": "Djib", "Type": "Puits cimenté", "Etat": "Permanent" }, "geometry": { "type": "Point", "coordinates": [ 42.879878700000063, 11.314839520000021 ] } },
{ "type": "Feature", "properties": { "Region": "Ali Sabieh", "Admin": "Ali Sabieh", "Localite": "Ali Sabieh", "Nom_pteau": "PUITS Communautaire 3", "Carte": "Djib", "Type": "Puits cimenté", "Etat": "Permanent" }, "geometry": { "type": "Point", "coordinates": [ 42.83729476000002, 10.983191680000175 ] } },
{ "type": "Feature", "properties": { "Region": "Ali Sabieh", "Admin": "Ali Sabieh", "Localite": "Gualilée", "Nom_pteau": "Gualilée 02", "Carte": "Ali Sabieh", "Type": "Puits cimenté", "Etat": "Permanent" }, "geometry": { "type": "Point", "coordinates": [ 42.651659930000164, 11.09516154 ] } },
{ "type": "Feature", "properties": { "Region": "Ali Sabieh", "Admin": "Ali Sabieh", "Localite": "Ali Sabieh", "Nom_pteau": "PUITS Communautaire 21", "Carte": "Djib", "Type": "Puits cimenté", "Etat": "Permanent" }, "geometry": { "type": "Point", "coordinates": [ 42.994779500000107, 11.227334580000104 ] } },
{ "type": "Feature", "properties": { "Region": "Ali Sabieh", "Admin": "Ali Addé", "Localite": "Ali-Addé", "Nom_pteau": "PUITS Communautaire 3", "Carte": "Ali Sabieh", "Type": "Puits cimenté", "Etat": "Permanent" }, "geometry": { "type": "Point", "coordinates": [ 42.691533830000139, 11.119680920000121 ] } },
{ "type": "Feature", "properties": { "Region": "Ali Sabieh", "Admin": "Holl-Holl", "Localite": "Holl-Holl", "Nom_pteau": "Puits communautaire10", "Carte": "Ali Sabieh", "Type": "Puits cimenté", "Etat": "Permanent" }, "geometry": { "type": "Point", "coordinates": [ 42.900338710000028, 11.305875330000106 ] } },
{ "type": "Feature", "properties": { "Region": "Ali Sabieh", "Admin": "Ali Sabieh", "Localite": "Ile  Jano", "Nom_pteau": "Ile Jano  02", "Carte": "Ali Sabieh", "Type": "Puits cimenté", "Etat": "Permanent" }, "geometry": { "type": "Point", "coordinates": [ 42.701958280000042, 11.149764300000072 ] } },
{ "type": "Feature", "properties": { "Region": "Ali Sabieh", "Admin": "Ali Sabieh", "Localite": "Ali Sabieh", "Nom_pteau": "PUITS Communautaire 19", "Carte": "Djib", "Type": "Puits cimenté", "Etat": "Permanent" }, "geometry": { "type": "Point", "coordinates": [ 42.989178720000154, 11.225651720000087 ] } },
{ "type": "Feature", "properties": { "Region": "Ali Sabieh", "Admin": "Ali Sabieh", "Localite": "Ali Sabieh", "Nom_pteau": "PUITS Communautaire 2", "Carte": "Djib", "Type": "Puits cimenté", "Etat": "Permanent" }, "geometry": { "type": "Point", "coordinates": [ 42.875904070000161, 10.973178850000181 ] } },
{ "type": "Feature", "properties": { "Region": "Ali Sabieh", "Admin": "Ali Sabieh", "Localite": "Ali Sabieh", "Nom_pteau": "Ahmed Houmed", "Carte": "Djib", "Type": "Puits traditionnel", "Etat": "Pollué" }, "geometry": { "type": "Point", "coordinates": [ 42.905881340000178, 11.137911740000106 ] } },
{ "type": "Feature", "properties": { "Region": "Ali Sabieh", "Admin": "Ali Sabieh", "Localite": "Hambocta", "Nom_pteau": "Ali  Boulaleh", "Carte": "Ali Sabieh", "Type": "Puits traditionnel", "Etat": "Permanent" }, "geometry": { "type": "Point", "coordinates": [ 42.676431750000063, 11.189212270000098 ] } },
{ "type": "Feature", "properties": { "Region": "Ali Sabieh", "Admin": "Ali Addé", "Localite": "Ali-Addé", "Nom_pteau": "Ali  Doualeh", "Carte": "Ali Sabieh", "Type": "Puits traditionnel", "Etat": "Permanent" }, "geometry": { "type": "Point", "coordinates": [ 42.904105770000172, 11.134076130000153 ] } },
{ "type": "Feature", "properties": { "Region": "Ali Sabieh", "Admin": "Ali Addé", "Localite": "Ali-Addé", "Nom_pteau": "Ambaro  Abdilahi", "Carte": "Ali Sabieh", "Type": "Puits traditionnel", "Etat": "Permanent" }, "geometry": { "type": "Point", "coordinates": [ 42.899617850000084, 11.131983980000086 ] } },
{ "type": "Feature", "properties": { "Region": "Ali Sabieh", "Admin": "Ali Sabieh", "Localite": "Ali Sabieh", "Nom_pteau": "Amina Farah", "Carte": "Ali Sabieh", "Type": "Puits traditionnel", "Etat": "Permanent" }, "geometry": { "type": "Point", "coordinates": [ 42.841586890000087, 11.26136506000006 ] } },
{ "type": "Feature", "properties": { "Region": "Ali Sabieh", "Admin": "Assamo", "Localite": "Assamo", "Nom_pteau": "Assamo  01", "Carte": "Ali Sabieh", "Type": "Puits traditionnel", "Etat": "Permanent" }, "geometry": { "type": "Point", "coordinates": [ 42.838560690000179, 10.98143828000002 ] } },
{ "type": "Feature", "properties": { "Region": "Ali Sabieh", "Admin": "Ali Addé", "Localite": "Assamo", "Nom_pteau": "Ayeh  Darar  01", "Carte": "Ali Sabieh", "Type": "Puits traditionnel", "Etat": "Permanent" }, "geometry": { "type": "Point", "coordinates": [ 42.823464750000085, 10.991850550000038 ] } },
{ "type": "Feature", "properties": { "Region": "Ali Sabieh", "Admin": "Ali Addé", "Localite": "Assamo", "Nom_pteau": "Ayeh  Darar  02", "Carte": "Ali Sabieh", "Type": "Puits traditionnel", "Etat": "Permanent" }, "geometry": { "type": "Point", "coordinates": [ 42.824895180000112, 10.990134570000123 ] } },
{ "type": "Feature", "properties": { "Region": "Ali Sabieh", "Admin": "Ali Sabieh", "Localite": "Ali Sabieh", "Nom_pteau": "Aynane Ahmed", "Carte": "Djib", "Type": "Puits traditionnel", "Etat": "Permanent" }, "geometry": { "type": "Point", "coordinates": [ 42.675441740000053, 11.1825172 ] } },
{ "type": "Feature", "properties": { "Region": "Ali Sabieh", "Admin": "Assamo", "Localite": "Assamo", "Nom_pteau": "Daher  Djama", "Carte": "Ali Sabieh", "Type": "Puits traditionnel", "Etat": "Permanent" }, "geometry": { "type": "Point", "coordinates": [ 42.867277400000148, 10.969485060000125 ] } },
{ "type": "Feature", "properties": { "Region": "Ali Sabieh", "Admin": "Assamo", "Localite": "Assamo", "Nom_pteau": "Daher Ahmed", "Carte": "Ali Sabieh", "Type": "Puits traditionnel", "Etat": "Permanent" }, "geometry": { "type": "Point", "coordinates": [ 42.862104610000074, 10.96505618000009 ] } },
{ "type": "Feature", "properties": { "Region": "Ali Sabieh", "Admin": "Ali Addé", "Localite": "Assamo", "Nom_pteau": "Dawanbah  01", "Carte": "Ali Sabieh", "Type": "Puits traditionnel", "Etat": "Permanent" }, "geometry": { "type": "Point", "coordinates": [ 42.859304470000041, 11.029866840000125 ] } },
{ "type": "Feature", "properties": { "Region": "Ali Sabieh", "Admin": "Ali Sabieh", "Localite": "Ali Sabieh", "Nom_pteau": "Deka  Moussa", "Carte": "Djib", "Type": "Puits traditionnel", "Etat": "Permanent" }, "geometry": { "type": "Point", "coordinates": [ 42.896898160000148, 11.130916470000045 ] } },
{ "type": "Feature", "properties": { "Region": "Ali Sabieh", "Admin": "Ali Sabieh", "Localite": "Hambocta", "Nom_pteau": "Djama  Darar", "Carte": "Ali Sabieh", "Type": "Puits traditionnel", "Etat": "Permanent" }, "geometry": { "type": "Point", "coordinates": [ 42.676690350000172, 11.179734510000173 ] } },
{ "type": "Feature", "properties": { "Region": "Ali Sabieh", "Admin": "Ali Addé", "Localite": "Ali-Addé", "Nom_pteau": "Djama  Iltireh", "Carte": "Ali Sabieh", "Type": "Puits traditionnel", "Etat": "Permanent" }, "geometry": { "type": "Point", "coordinates": [ 42.898031160000073, 11.131177490000141 ] } },
{ "type": "Feature", "properties": { "Region": "Ali Sabieh", "Admin": "Ali Addé", "Localite": "Doussagoudmoune", "Nom_pteau": "Doussagoudmoune02", "Carte": "Ali Sabieh", "Type": "Puits traditionnel", "Etat": "Permanent" }, "geometry": { "type": "Point", "coordinates": [ 42.876293400000066, 11.024834890000136 ] } },
{ "type": "Feature", "properties": { "Region": "Ali Sabieh", "Admin": "Assamo", "Localite": "Assamo", "Nom_pteau": "Elmi  Moussa", "Carte": "Ali Sabieh", "Type": "Puits traditionnel", "Etat": "Permanent" }, "geometry": { "type": "Point", "coordinates": [ 42.864371940000069, 10.976668060000065 ] } },
{ "type": "Feature", "properties": { "Region": "Ali Sabieh", "Admin": "Assamo", "Localite": "Assamo", "Nom_pteau": "Elmi Ali", "Carte": "Ali Sabieh", "Type": "Puits traditionnel", "Etat": "Permanent" }, "geometry": { "type": "Point", "coordinates": [ 42.868086130000108, 10.971506250000175 ] } },
{ "type": "Feature", "properties": { "Region": "Ali Sabieh", "Admin": "Ali Sabieh", "Localite": "Ali Sabieh", "Nom_pteau": "F2", "Carte": "Djib", "Type": "Puits traditionnel", "Etat": "Permanent" }, "geometry": { "type": "Point", "coordinates": [ 42.927857550000056, 11.002451749999977 ] } },
{ "type": "Feature", "properties": { "Region": "Ali Sabieh", "Admin": "Ali Addé", "Localite": "Assamo", "Nom_pteau": "Farah  Saleh", "Carte": "Ali Sabieh", "Type": "Puits traditionnel", "Etat": "Permanent" }, "geometry": { "type": "Point", "coordinates": [ 42.825497350000035, 10.990346760000136 ] } },
{ "type": "Feature", "properties": { "Region": "Ali Sabieh", "Admin": "Ali Addé", "Localite": "Assamo", "Nom_pteau": "Farhan ABDI", "Carte": "Ali Sabieh", "Type": "Puits traditionnel", "Etat": "Permanent" }, "geometry": { "type": "Point", "coordinates": [ 42.818224690000136, 11.004095380000081 ] } },
{ "type": "Feature", "properties": { "Region": "Ali Sabieh", "Admin": "Ali Sabieh", "Localite": "Ali Sabieh", "Nom_pteau": "Galdaassée  F1", "Carte": "Djib", "Type": "Puits traditionnel", "Etat": "Pollué" }, "geometry": { "type": "Point", "coordinates": [ 42.927646830000185, 11.002495500000066 ] } },
{ "type": "Feature", "properties": { "Region": "Ali Sabieh", "Admin": "Ali Sabieh", "Localite": "Gualilée", "Nom_pteau": "Gualilée 03", "Carte": "Ali Sabieh", "Type": "Puits traditionnel", "Etat": "Permanent" }, "geometry": { "type": "Point", "coordinates": [ 42.648261680000189, 11.092197990000102 ] } },
{ "type": "Feature", "properties": { "Region": "Ali Sabieh", "Admin": "Holl-Holl", "Localite": "Holl-Holl", "Nom_pteau": "Guedid  Ilig  02", "Carte": "Ali Sabieh", "Type": "Puits traditionnel", "Etat": "Permanent" }, "geometry": { "type": "Point", "coordinates": [ 42.866505250000046, 11.314011060000041 ] } },
{ "type": "Feature", "properties": { "Region": "Ali Sabieh", "Admin": "Ali Addé", "Localite": "Guistir", "Nom_pteau": "Guistir   04", "Carte": "Ali Sabieh", "Type": "Puits traditionnel", "Etat": "Permanent" }, "geometry": { "type": "Point", "coordinates": [ 42.948800660000018, 11.00870430000009 ] } },
{ "type": "Feature", "properties": { "Region": "Ali Sabieh", "Admin": "Ali Addé", "Localite": "Ali-Addé", "Nom_pteau": "Harbi  Djama", "Carte": "Ali Sabieh", "Type": "Puits traditionnel", "Etat": "Permanent" }, "geometry": { "type": "Point", "coordinates": [ 42.892243540000095, 11.130386670000064 ] } },
{ "type": "Feature", "properties": { "Region": "Ali Sabieh", "Admin": "Assamo", "Localite": "Assamo", "Nom_pteau": "Hassan  Bahdon", "Carte": "Ali Sabieh", "Type": "Puits traditionnel", "Etat": "Permanent" }, "geometry": { "type": "Point", "coordinates": [ 42.822260070000027, 10.993965810000077 ] } },
{ "type": "Feature", "properties": { "Region": "Ali Sabieh", "Admin": "Ali Sabieh", "Localite": "Ali Sabieh", "Nom_pteau": "Hassan Darar", "Carte": "Djib", "Type": "Puits traditionnel", "Etat": "Permanent" }, "geometry": { "type": "Point", "coordinates": [ 42.675453200000106, 11.182228110000096 ] } },
{ "type": "Feature", "properties": { "Region": "Ali Sabieh", "Admin": "Assamo", "Localite": "Assamo", "Nom_pteau": "Housein Hildid", "Carte": "Ali Sabieh", "Type": "Puits traditionnel", "Etat": "Permanent" }, "geometry": { "type": "Point", "coordinates": [ 42.87343799000007, 10.971390110000186 ] } },
{ "type": "Feature", "properties": { "Region": "Ali Sabieh", "Admin": "Ali Sabieh", "Localite": "Ali Sabieh", "Nom_pteau": "Ibrahim  Allaleh  01", "Carte": "Djib", "Type": "Puits traditionnel", "Etat": "Permanent" }, "geometry": { "type": "Point", "coordinates": [ 42.836775040000191, 10.981705740000166 ] } },
{ "type": "Feature", "properties": { "Region": "Ali Sabieh", "Admin": "Ali Sabieh", "Localite": "Ali Sabieh", "Nom_pteau": "Ibrahim Dideh  03", "Carte": "Djib", "Type": "Puits traditionnel", "Etat": "Permanent" }, "geometry": { "type": "Point", "coordinates": [ 42.674707420000061, 11.183930280000084 ] } },
{ "type": "Feature", "properties": { "Region": "Ali Sabieh", "Admin": "Assamo", "Localite": "Assamo", "Nom_pteau": "Ibrahim Ismael", "Carte": "Ali Sabieh", "Type": "Puits traditionnel", "Etat": "Permanent" }, "geometry": { "type": "Point", "coordinates": [ 42.874095380000085, 10.971557390000157 ] } },
{ "type": "Feature", "properties": { "Region": "Ali Sabieh", "Admin": "Ali Addé", "Localite": "Assamo", "Nom_pteau": "Ismin  Said A", "Carte": "Ali Sabieh", "Type": "Puits traditionnel", "Etat": "Permanent" }, "geometry": { "type": "Point", "coordinates": [ 42.834291370000074, 10.9861256800001 ] } },
{ "type": "Feature", "properties": { "Region": "Ali Sabieh", "Admin": "Ali Sabieh", "Localite": "Hambocta", "Nom_pteau": "Kadir Ardiyeh", "Carte": "Ali Sabieh", "Type": "Puits traditionnel", "Etat": "Permanent" }, "geometry": { "type": "Point", "coordinates": [ 42.676562300000057, 11.180872170000157 ] } },
{ "type": "Feature", "properties": { "Region": "Ali Sabieh", "Admin": "Holl-Holl", "Localite": "Dhoureh", "Nom_pteau": "Kenedid Moussa 2", "Carte": "Ali Sabieh", "Type": "Puits traditionnel", "Etat": "Permanent" }, "geometry": { "type": "Point", "coordinates": [ 42.856012660000147, 11.275505700000167 ] } },
{ "type": "Feature", "properties": { "Region": "Ali Sabieh", "Admin": "Ali Sabieh", "Localite": "Ali Sabieh", "Nom_pteau": "Kenedid Moussa A .", "Carte": "Djib", "Type": "Puits traditionnel", "Etat": "Permanent" }, "geometry": { "type": "Point", "coordinates": [ 42.857183870000085, 11.276851799999974 ] } },
{ "type": "Feature", "properties": { "Region": "Ali Sabieh", "Admin": "Ali Addé", "Localite": "Ali-Addé", "Nom_pteau": "Khaireh  Dirieh", "Carte": "Ali Sabieh", "Type": "Puits traditionnel", "Etat": "Permanent" }, "geometry": { "type": "Point", "coordinates": [ 42.905138280000131, 11.13559274000005 ] } },
{ "type": "Feature", "properties": { "Region": "Ali Sabieh", "Admin": "Ali Addé", "Localite": "Assamo", "Nom_pteau": "Mahmoud  Bouraleh", "Carte": "Ali Sabieh", "Type": "Puits traditionnel", "Etat": "Permanent" }, "geometry": { "type": "Point", "coordinates": [ 42.830439300000194, 10.986269880000123 ] } },
{ "type": "Feature", "properties": { "Region": "Ali Sabieh", "Admin": "Ali Sabieh", "Localite": "Gualilée", "Nom_pteau": "Gualilée 01", "Carte": "Ali Sabieh", "Type": "Puits cimenté", "Etat": "Permanent" }, "geometry": { "type": "Point", "coordinates": [ 42.649764640000058, 11.091893460000165 ] } },
{ "type": "Feature", "properties": { "Region": "Ali Sabieh", "Admin": "Ali Addé", "Localite": "Guistir", "Nom_pteau": "Guistir   03", "Carte": "Ali Sabieh", "Type": "Puits traditionnel", "Etat": "Permanent" }, "geometry": { "type": "Point", "coordinates": [ 42.948701160000155, 11.008540930000038 ] } },
{ "type": "Feature", "properties": { "Region": "Ali Sabieh", "Admin": "Assamo", "Localite": "Ali Sabieh", "Nom_pteau": "Zahra   Idleh", "Carte": "Djib", "Type": "Puits traditionnel", "Etat": "Permanent" }, "geometry": { "type": "Point", "coordinates": [ 42.833437550000099, 10.986553410000113 ] } },
{ "type": "Feature", "properties": { "Region": "Ali Sabieh", "Admin": "Ali Sabieh", "Localite": "Ali Sabieh", "Nom_pteau": "PUITS Communautaire 4", "Carte": "Djib", "Type": "Puits traditionnel", "Etat": "Permanent" }, "geometry": { "type": "Point", "coordinates": [ 42.79606744, 11.252507590000107 ] } },
{ "type": "Feature", "properties": { "Region": "Ali Sabieh", "Admin": "Ali Sabieh", "Localite": "Ali Sabieh", "Nom_pteau": "PUITS Communautaire 4", "Carte": "Djib", "Type": "Puits traditionnel", "Etat": "Permanent" }, "geometry": { "type": "Point", "coordinates": [ 42.905786230000103, 11.13713378 ] } },
{ "type": "Feature", "properties": { "Region": "Ali Sabieh", "Admin": "Ali Sabieh", "Localite": "Ali Sabieh", "Nom_pteau": "PUITS Communautaire 4", "Carte": "Djib", "Type": "Puits traditionnel", "Etat": "Permanent" }, "geometry": { "type": "Point", "coordinates": [ 42.948800660000018, 11.00870430000009 ] } },
{ "type": "Feature", "properties": { "Region": "Ali Sabieh", "Admin": "Ali Sabieh", "Localite": "Ali Sabieh", "Nom_pteau": "PUITS Communautaire 5", "Carte": "Djib", "Type": "Puits traditionnel", "Etat": "Pollué" }, "geometry": { "type": "Point", "coordinates": [ 42.910291120000181, 11.30110142 ] } },
{ "type": "Feature", "properties": { "Region": "Ali Sabieh", "Admin": "Ali Sabieh", "Localite": "Ali Sabieh", "Nom_pteau": "Puits de Jardin 01", "Carte": "Djib", "Type": "Puits traditionnel", "Etat": "Permanent" }, "geometry": { "type": "Point", "coordinates": [ 42.916843530000165, 11.29791200000011 ] } },
{ "type": "Feature", "properties": { "Region": "Ali Sabieh", "Admin": "Ali Addé", "Localite": "Assamo", "Nom_pteau": "Youssouf  Moumin", "Carte": "Ali Sabieh", "Type": "Puits traditionnel", "Etat": "Permanent" }, "geometry": { "type": "Point", "coordinates": [ 42.830091890000062, 10.987496560000181 ] } },
{ "type": "Feature", "properties": { "Region": "Ali Sabieh", "Admin": "Ali Sabieh", "Localite": "Ali Sabieh", "Nom_pteau": "PUITS Communautaire 3", "Carte": "Djib", "Type": "Puits traditionnel", "Etat": "Permanent" }, "geometry": { "type": "Point", "coordinates": [ 42.798031350000144, 11.225364060000118 ] } },
{ "type": "Feature", "properties": { "Region": "Ali Sabieh", "Admin": "Ali Sabieh", "Localite": "Ali Sabieh", "Nom_pteau": "PUITS Communautaire 3", "Carte": "Djib", "Type": "Puits traditionnel", "Etat": "Permanent" }, "geometry": { "type": "Point", "coordinates": [ 42.87970888000001, 11.134934839999971 ] } },
{ "type": "Feature", "properties": { "Region": "Ali Sabieh", "Admin": "Ali Sabieh", "Localite": "Ali Sabieh", "Nom_pteau": "PUITS Communautaire 3", "Carte": "Djib", "Type": "Puits traditionnel", "Etat": "Permanent" }, "geometry": { "type": "Point", "coordinates": [ 42.9169651200001, 11.297560360000148 ] } },
{ "type": "Feature", "properties": { "Region": "Ali Sabieh", "Admin": "Ali Sabieh", "Localite": "Ali Sabieh", "Nom_pteau": "Said Ali Boulaleh 02", "Carte": "Djib", "Type": "Puits traditionnel", "Etat": "Permanent" }, "geometry": { "type": "Point", "coordinates": [ 42.675365780000163, 11.182860010000127 ] } },
{ "type": "Feature", "properties": { "Region": "Ali Sabieh", "Admin": "Assamo", "Localite": "Assamo", "Nom_pteau": "Assamo   04", "Carte": "Ali Sabieh", "Type": "Puits traditionnel", "Etat": "Permanent" }, "geometry": { "type": "Point", "coordinates": [ 42.820451500000161, 10.99734203 ] } },
{ "type": "Feature", "properties": { "Region": "Ali Sabieh", "Admin": "Ali Addé", "Localite": "Ali-Addé", "Nom_pteau": "Puits communautaire(Ali-Addée  3", "Carte": "Ali Sabieh", "Type": "Puits traditionnel", "Etat": "Permanent" }, "geometry": { "type": "Point", "coordinates": [ 42.905870770000035, 11.13811051 ] } },
{ "type": "Feature", "properties": { "Region": "Ali Sabieh", "Admin": "Holl-Holl", "Localite": "Holl-Holl", "Nom_pteau": "Abdi  Idriss", "Carte": "Ali Sabieh", "Type": "Puits traditionnel", "Etat": "Permanent" }, "geometry": { "type": "Point", "coordinates": [ 42.905506910000099, 11.304167650000068 ] } },
{ "type": "Feature", "properties": { "Region": "Ali Sabieh", "Admin": "Ali Sabieh", "Localite": "Hambocta", "Nom_pteau": "Abdilahi Awled  04", "Carte": "Ali Sabieh", "Type": "Puits traditionnel", "Etat": "Permanent" }, "geometry": { "type": "Point", "coordinates": [ 42.674834830000123, 11.184021639999969 ] } },
{ "type": "Feature", "properties": { "Region": "Ali Sabieh", "Admin": "Ali Addé", "Localite": "Ali-Addé", "Nom_pteau": "Ahmed  Abdilahi", "Carte": "Ali Sabieh", "Type": "Puits traditionnel", "Etat": "Permanent" }, "geometry": { "type": "Point", "coordinates": [ 42.904527500000086, 11.135254060000079 ] } },
{ "type": "Feature", "properties": { "Region": "Ali Sabieh", "Admin": "Ali Addé", "Localite": "Ali-Addé", "Nom_pteau": "Ahmed  Darar", "Carte": "Ali Sabieh", "Type": "Puits traditionnel", "Etat": "Permanent" }, "geometry": { "type": "Point", "coordinates": [ 42.902670490000048, 11.133849170000019 ] } },
{ "type": "Feature", "properties": { "Region": "Ali Sabieh", "Admin": "Assamo", "Localite": "Assamo", "Nom_pteau": "Ahmed  Gualab", "Carte": "Ali Sabieh", "Type": "Puits traditionnel", "Etat": "Permanent" }, "geometry": { "type": "Point", "coordinates": [ 42.821477240000092, 10.99717768000005 ] } },
{ "type": "Feature", "properties": { "Region": "Ali Sabieh", "Admin": "Assamo", "Localite": "Assamo", "Nom_pteau": "Ahmed  Houssein 01", "Carte": "Ali Sabieh", "Type": "Puits traditionnel", "Etat": "Permanent" }, "geometry": { "type": "Point", "coordinates": [ 42.835961310000187, 10.981654750000189 ] } },
{ "type": "Feature", "properties": { "Region": "Ali Sabieh", "Admin": "Ali Sabieh", "Localite": "Ali Sabieh", "Nom_pteau": "Ahmed  Houssein 01", "Carte": "Djib", "Type": "Puits traditionnel", "Etat": "Permanent" }, "geometry": { "type": "Point", "coordinates": [ 42.853925540000091, 10.980516959999989 ] } },
{ "type": "Feature", "properties": { "Region": "Ali Sabieh", "Admin": "Ali Addé", "Localite": "Ali-Addé", "Nom_pteau": "Ahmed  Khaireh", "Carte": "Ali Sabieh", "Type": "Puits traditionnel", "Etat": "Permanent" }, "geometry": { "type": "Point", "coordinates": [ 42.89762907000005, 11.131093330000112 ] } },
{ "type": "Feature", "properties": { "Region": "Ali Sabieh", "Admin": "Ali Sabieh", "Localite": "Ali Sabieh", "Nom_pteau": "Ahmed  Moussa", "Carte": "Djib", "Type": "Puits traditionnel", "Etat": "Permanent" }, "geometry": { "type": "Point", "coordinates": [ 42.907705660000147, 11.305303970000125 ] } },
{ "type": "Feature", "properties": { "Region": "Ali Sabieh", "Admin": "Ali Sabieh", "Localite": "Ali Sabieh", "Nom_pteau": "Ahmed Assowé 01", "Carte": "Djib", "Type": "Puits traditionnel", "Etat": "Permanent" }, "geometry": { "type": "Point", "coordinates": [ 42.69449338000004, 11.122676900000044 ] } },
{ "type": "Feature", "properties": { "Region": "Ali Sabieh", "Admin": "Assamo", "Localite": "Assamo", "Nom_pteau": "Ahmed DJAMA 01", "Carte": "Ali Sabieh", "Type": "Puits traditionnel", "Etat": "Permanent" }, "geometry": { "type": "Point", "coordinates": [ 42.875499550000086, 10.97346524000011 ] } },
{ "type": "Feature", "properties": { "Region": "Ali Sabieh", "Admin": "Assamo", "Localite": "Assamo", "Nom_pteau": "Ahmed DJAMA 02", "Carte": "Ali Sabieh", "Type": "Puits traditionnel", "Etat": "Permanent" }, "geometry": { "type": "Point", "coordinates": [ 42.875904070000161, 10.973178850000181 ] } },
{ "type": "Feature", "properties": { "Region": "Ali Sabieh", "Admin": "Assamo", "Localite": "Assamo", "Nom_pteau": "Ahmed Elmi", "Carte": "Ali Sabieh", "Type": "Puits traditionnel", "Etat": "Permanent" }, "geometry": { "type": "Point", "coordinates": [ 42.864296850000073, 10.973115540000094 ] } },
{ "type": "Feature", "properties": { "Region": "Ali Sabieh", "Admin": "Ali Addé", "Localite": "Midgan", "Nom_pteau": "Midgan  02", "Carte": "Ali Sabieh", "Type": "Puits traditionnel", "Etat": "Permanent" }, "geometry": { "type": "Point", "coordinates": [ 42.86687888, 11.115890900000068 ] } },
{ "type": "Feature", "properties": { "Region": "Ali Sabieh", "Admin": "Ali Sabieh", "Localite": "Ali Sabieh", "Nom_pteau": "Mohamed  Waiss", "Carte": "Djib", "Type": "Puits traditionnel", "Etat": "Permanent" }, "geometry": { "type": "Point", "coordinates": [ 42.857527760000096, 10.982033690000094 ] } },
{ "type": "Feature", "properties": { "Region": "Ali Sabieh", "Admin": "Assamo", "Localite": "Assamo", "Nom_pteau": "Mohamed Ali  Dalieh", "Carte": "Ali Sabieh", "Type": "Puits traditionnel", "Etat": "Permanent" }, "geometry": { "type": "Point", "coordinates": [ 42.879327440000111, 10.974133700000152 ] } },
{ "type": "Feature", "properties": { "Region": "Ali Sabieh", "Admin": "Mouloud", "Localite": "Mouloud", "Nom_pteau": "Molid  02", "Carte": "Ali Sabieh", "Type": "Puits traditionnel", "Etat": "Permanent" }, "geometry": { "type": "Point", "coordinates": [ 42.819257790000165, 11.113063200000056 ] } },
{ "type": "Feature", "properties": { "Region": "Ali Sabieh", "Admin": "Ali Sabieh", "Localite": "Ali Sabieh", "Nom_pteau": "Moussa  Kayad  01", "Carte": "Djib", "Type": "Puits traditionnel", "Etat": "Permanent" }, "geometry": { "type": "Point", "coordinates": [ 42.852965, 10.980528240000069 ] } },
{ "type": "Feature", "properties": { "Region": "Ali Sabieh", "Admin": "Assamo", "Localite": "Assamo", "Nom_pteau": "Moussa  Kayad  02", "Carte": "Ali Sabieh", "Type": "Puits traditionnel", "Etat": "Pollué" }, "geometry": { "type": "Point", "coordinates": [ 42.852551630000107, 10.980769340000109 ] } },
{ "type": "Feature", "properties": { "Region": "Ali Sabieh", "Admin": "Holl-Holl", "Localite": "Dhoureh", "Nom_pteau": "Moussa  Sougueh", "Carte": "Ali Sabieh", "Type": "Puits traditionnel", "Etat": "Permanent" }, "geometry": { "type": "Point", "coordinates": [ 42.905786230000103, 11.13713378 ] } },
{ "type": "Feature", "properties": { "Region": "Ali Sabieh", "Admin": "Assamo", "Localite": "Assamo", "Nom_pteau": "Moussa Sougueh", "Carte": "Ali Sabieh", "Type": "Puits traditionnel", "Etat": "Permanent" }, "geometry": { "type": "Point", "coordinates": [ 42.834435300000052, 10.977676190000182 ] } },
{ "type": "Feature", "properties": { "Region": "Ali Sabieh", "Admin": "Ali Sabieh", "Localite": "Aramadoleh", "Nom_pteau": "Nasser", "Carte": "Ali Sabieh", "Type": "Puits traditionnel", "Etat": "Permanent" }, "geometry": { "type": "Point", "coordinates": [ 42.692013950000046, 11.120299140000157 ] } },
{ "type": "Feature", "properties": { "Region": "Ali Sabieh", "Admin": "Ali Addé", "Localite": "Assamo", "Nom_pteau": "Okieh  Houssein", "Carte": "Ali Sabieh", "Type": "Puits traditionnel", "Etat": "Permanent" }, "geometry": { "type": "Point", "coordinates": [ 42.828670250000187, 10.9892668600001 ] } },
{ "type": "Feature", "properties": { "Region": "Ali Sabieh", "Admin": "Holl-Holl", "Localite": "Dhoureh", "Nom_pteau": "Osman  Robleh", "Carte": "Ali Sabieh", "Type": "Puits traditionnel", "Etat": "Permanent" }, "geometry": { "type": "Point", "coordinates": [ 42.829893270000127, 11.250569870000049 ] } },
{ "type": "Feature", "properties": { "Region": "Ali Sabieh", "Admin": "Ali Sabieh", "Localite": "Ali Sabieh", "Nom_pteau": "Osman Ali", "Carte": "Djib", "Type": "Puits traditionnel", "Etat": "Permanent" }, "geometry": { "type": "Point", "coordinates": [ 42.836544020000076, 11.25741491000008 ] } },
{ "type": "Feature", "properties": { "Region": "Ali Sabieh", "Admin": "Ali Sabieh", "Localite": "Ali Sabieh", "Nom_pteau": "Osman Obsieeh", "Carte": "Djib", "Type": "Puits traditionnel", "Etat": "Permanent" }, "geometry": { "type": "Point", "coordinates": [ 42.731766700000094, 11.148419350000154 ] } },
{ "type": "Feature", "properties": { "Region": "Ali Sabieh", "Admin": "Holl-Holl", "Localite": "Kabah-Kabah", "Nom_pteau": "P. Comm.  18", "Carte": "Ali Sabieh", "Type": "Puits traditionnel", "Etat": "Permanent" }, "geometry": { "type": "Point", "coordinates": [ 43.004045800000142, 11.255173010000021 ] } },
{ "type": "Feature", "properties": { "Region": "Ali Sabieh", "Admin": "Holl-Holl", "Localite": "Kabah-Kabah", "Nom_pteau": "P. Comm.  20", "Carte": "Ali Sabieh", "Type": "Puits traditionnel", "Etat": "Pollué" }, "geometry": { "type": "Point", "coordinates": [ 42.990177070000129, 11.225595200000043 ] } },
{ "type": "Feature", "properties": { "Region": "Ali Sabieh", "Admin": "Holl-Holl", "Localite": "Holl-Holl", "Nom_pteau": "Puits communautaire  03", "Carte": "Ali Sabieh", "Type": "Puits traditionnel", "Etat": "Permanent" }, "geometry": { "type": "Point", "coordinates": [ 42.9169651200001, 11.297560360000148 ] } },
{ "type": "Feature", "properties": { "Region": "Ali Sabieh", "Admin": "Ali Addé", "Localite": "Ali-Addé", "Nom_pteau": "Puits communautaire 09", "Carte": "Ali Sabieh", "Type": "Puits traditionnel", "Etat": "Permanent" }, "geometry": { "type": "Point", "coordinates": [ 42.891986510000152, 11.130493330000036 ] } },
{ "type": "Feature", "properties": { "Region": "Ali Sabieh", "Admin": "Ali Addé", "Localite": "Ali-Addé", "Nom_pteau": "Puits communautaire 11", "Carte": "Ali Sabieh", "Type": "Puits traditionnel", "Etat": "Permanent" }, "geometry": { "type": "Point", "coordinates": [ 42.890226590000054, 11.130869590000088 ] } },
{ "type": "Feature", "properties": { "Region": "Ali Sabieh", "Admin": "Ali Sabieh", "Localite": "Ali Sabieh", "Nom_pteau": "PUITS Communautaire 11", "Carte": "Djib", "Type": "Puits traditionnel", "Etat": "Permanent" }, "geometry": { "type": "Point", "coordinates": [ 42.931098850000183, 11.305992990000107 ] } },
{ "type": "Feature", "properties": { "Region": "Ali Sabieh", "Admin": "Ali Sabieh", "Localite": "Ali Sabieh", "Nom_pteau": "PUITS Communautaire 12", "Carte": "Djib", "Type": "Puits traditionnel", "Etat": "Permanent" }, "geometry": { "type": "Point", "coordinates": [ 42.90793981000013, 11.312156600000094 ] } },
{ "type": "Feature", "properties": { "Region": "Ali Sabieh", "Admin": "Ali Sabieh", "Localite": "Ali Sabieh", "Nom_pteau": "PUITS Communautaire 13", "Carte": "Djib", "Type": "Puits traditionnel", "Etat": "Permanent" }, "geometry": { "type": "Point", "coordinates": [ 42.887010990000078, 11.135122 ] } },
{ "type": "Feature", "properties": { "Region": "Ali Sabieh", "Admin": "Ali Sabieh", "Localite": "Ali Sabieh", "Nom_pteau": "PUITS Communautaire 14", "Carte": "Djib", "Type": "Puits traditionnel", "Etat": "Permanent" }, "geometry": { "type": "Point", "coordinates": [ 42.963673720000145, 11.374505160000126 ] } },
{ "type": "Feature", "properties": { "Region": "Ali Sabieh", "Admin": "Ali Sabieh", "Localite": "Ali Sabieh", "Nom_pteau": "PUITS Communautaire 2", "Carte": "Djib", "Type": "Puits traditionnel", "Etat": "Pollué" }, "geometry": { "type": "Point", "coordinates": [ 42.853731230000051, 10.980822880000119 ] } },
{ "type": "Feature", "properties": { "Region": "Ali Sabieh", "Admin": "Ali Sabieh", "Localite": "Ali Sabieh", "Nom_pteau": "PUITS Communautaire 6", "Carte": "Djib", "Type": "Puits traditionnel", "Etat": "Permanent" }, "geometry": { "type": "Point", "coordinates": [ 42.909753060000071, 11.302055670000129 ] } },
{ "type": "Feature", "properties": { "Region": "Ali Sabieh", "Admin": "Ali Sabieh", "Localite": "Ali Sabieh", "Nom_pteau": "PUITS Communautaire 7", "Carte": "Djib", "Type": "Puits traditionnel", "Etat": "Permanent" }, "geometry": { "type": "Point", "coordinates": [ 42.91059682000008, 11.303146230000095 ] } },
{ "type": "Feature", "properties": { "Region": "Ali Sabieh", "Admin": "Assamo", "Localite": "Assamo", "Nom_pteau": "Said  Hassan   03", "Carte": "Ali Sabieh", "Type": "Puits traditionnel", "Etat": "Permanent" }, "geometry": { "type": "Point", "coordinates": [ 42.83459582, 10.982006530000149 ] } },
{ "type": "Feature", "properties": { "Region": "Ali Sabieh", "Admin": "Ali Addé", "Localite": "Ali-Addé", "Nom_pteau": "Zahra  Yonis", "Carte": "Ali Sabieh", "Type": "Puits traditionnel", "Etat": "Pollué" }, "geometry": { "type": "Point", "coordinates": [ 42.886833840000179, 11.131767580000087 ] } },
{ "type": "Feature", "properties": { "Region": "Ali Sabieh", "Admin": "Ali Sabieh", "Localite": "Ali Sabieh", "Nom_pteau": "PUITS Communautaire 2", "Carte": "Djib", "Type": "Puits traditionnel", "Etat": "Permanent" }, "geometry": { "type": "Point", "coordinates": [ 42.801150110000094, 11.228170750000174 ] } },
{ "type": "Feature", "properties": { "Region": "Ali Sabieh", "Admin": "Ali Sabieh", "Localite": "Ali Sabieh", "Nom_pteau": "PUITS Communautaire 2", "Carte": "Djib", "Type": "Puits traditionnel", "Etat": "Permanent" }, "geometry": { "type": "Point", "coordinates": [ 42.90764254000004, 11.305167950000055 ] } },
{ "type": "Feature", "properties": { "Region": "Ali Sabieh", "Admin": "Ali Sabieh", "Localite": "Ali Sabieh", "Nom_pteau": "P. Comm.(Ali-Addée  (1)", "Carte": "Djib", "Type": "Puits traditionnel", "Etat": "Permanent" }, "geometry": { "type": "Point", "coordinates": [ 42.89779607, 11.132052550000083 ] } },
{ "type": "Feature", "properties": { "Region": "Ali Sabieh", "Admin": "Ali Sabieh", "Localite": "Ali Sabieh", "Nom_pteau": "P. Comm. 09", "Carte": "Djib", "Type": "Puits traditionnel", "Etat": "Permanent" }, "geometry": { "type": "Point", "coordinates": [ 42.903521370000135, 11.307714610000062 ] } },
{ "type": "Feature", "properties": { "Region": "Ali Sabieh", "Admin": "Ali Sabieh", "Localite": "Ali Sabieh", "Nom_pteau": "Puits Comm.", "Carte": "Djib", "Type": "Puits traditionnel", "Etat": "Permanent" }, "geometry": { "type": "Point", "coordinates": [ 42.834443670000041, 11.255456440000046 ] } },
{ "type": "Feature", "properties": { "Region": "Ali Sabieh", "Admin": "Ali Sabieh", "Localite": "Ali Sabieh", "Nom_pteau": "Osman  Barareyeh", "Carte": "Djib", "Type": "Puits traditionnel", "Etat": "Pollué" }, "geometry": { "type": "Point", "coordinates": [ 42.897823400000107, 11.132070819999967 ] } },
{ "type": "Feature", "properties": { "Region": "Ali Sabieh", "Admin": "Ali Sabieh", "Localite": "Ali Sabieh", "Nom_pteau": "PUITS Communautaire 2", "Carte": "Djib", "Type": "Puits traditionnel", "Etat": "Permanent" }, "geometry": { "type": "Point", "coordinates": [ 42.834671370000081, 10.981681700000081 ] } },
{ "type": "Feature", "properties": { "Region": "Ali Sabieh", "Admin": "Ali Sabieh", "Localite": "Ali Sabieh", "Nom_pteau": "PUITS Communautaire 13", "Carte": "Djib", "Type": "Puits traditionnel", "Etat": "Permanent" }, "geometry": { "type": "Point", "coordinates": [ 42.907146890000092, 11.312892110000178 ] } },
{ "type": "Feature", "properties": { "Region": "Ali Sabieh", "Admin": "Ali Sabieh", "Localite": "Ali Sabieh", "Nom_pteau": "PUITS Communautaire 16", "Carte": "Djib", "Type": "Puits traditionnel", "Etat": "Permanent" }, "geometry": { "type": "Point", "coordinates": [ 42.882600810000042, 11.132424600000093 ] } },
{ "type": "Feature", "properties": { "Region": "Ali Sabieh", "Admin": "Ali Sabieh", "Localite": "Ali Sabieh", "Nom_pteau": "PUITS Communautaire 17", "Carte": "Djib", "Type": "Puits traditionnel", "Etat": "Permanent" }, "geometry": { "type": "Point", "coordinates": [ 42.882419350000134, 11.132206409999981 ] } },
{ "type": "Feature", "properties": { "Region": "Ali Sabieh", "Admin": "Ali Sabieh", "Localite": "Ali Sabieh", "Nom_pteau": "PUITS Communautaire 2", "Carte": "Djib", "Type": "Puits traditionnel", "Etat": "Pollué" }, "geometry": { "type": "Point", "coordinates": [ 42.849844170000097, 10.98201551 ] } },
{ "type": "Feature", "properties": { "Region": "Ali Sabieh", "Admin": "Holl-Holl", "Localite": "Dhoureh", "Nom_pteau": "Doureh F4 (puits forage)", "Carte": "Ali Sabieh", "Type": "Puits cimenté", "Etat": "Permanent" }, "geometry": { "type": "Point", "coordinates": [ 42.859598389999974, 11.277230780000082 ] } },
{ "type": "Feature", "properties": { "Region": "Arta", "Admin": "Arta", "Localite": "Arta", "Nom_pteau": "AD-ELA", "Carte": "Assal", "Type": "Source", "Etat": "Permanent" }, "geometry": { "type": "Point", "coordinates": [ 42.72255207000012, 11.311624680000136 ] } },
{ "type": "Feature", "properties": { "Region": "Arta", "Admin": "Arta", "Localite": "Arta", "Nom_pteau": "Dimbiya", "Carte": "TAD", "Type": "Source", "Etat": "Permanent" }, "geometry": { "type": "Point", "coordinates": [ 42.566551640000114, 11.446672030000173 ] } },
{ "type": "Feature", "properties": { "Region": "Arta", "Admin": "Arta", "Localite": "Arta", "Nom_pteau": "Indholeh", "Carte": "TAD", "Type": "Source", "Etat": "Permanent" }, "geometry": { "type": "Point", "coordinates": [ 42.852096770000173, 11.533453949999966 ] } },
{ "type": "Feature", "properties": { "Region": "Arta", "Admin": "arta", "Localite": "karta", "Nom_pteau": "canyon", "Carte": "Djib", "Type": "Retenue", "Etat": "3 mois" }, "geometry": { "type": "Point", "coordinates": [ 42.56690642000018, 11.44588884 ] } },
{ "type": "Feature", "properties": { "Region": "Arta", "Admin": "arta", "Localite": "Hemed", "Nom_pteau": "Karta  F1", "Carte": "Ali Sabieh", "Type": "Retenue", "Etat": "3 mois" }, "geometry": { "type": "Point", "coordinates": [ 42.529171510000083, 11.467483690000165 ] } },
{ "type": "Feature", "properties": { "Region": "Arta", "Admin": "arta", "Localite": "arta", "Nom_pteau": "Dimbiya", "Carte": "TAD", "Type": "Retenue", "Etat": "3 mois" }, "geometry": { "type": "Point", "coordinates": [ 42.566551640000114, 11.446672030000173 ] } },
{ "type": "Feature", "properties": { "Region": "Arta", "Admin": "Arta", "Localite": "Arta", "Nom_pteau": "Grand-Bara 02", "Carte": "Ali Sabieh", "Type": "Retenue", "Etat": "3 mois" }, "geometry": { "type": "Point", "coordinates": [ 42.561608490000026, 11.266313850000074 ] } },
{ "type": "Feature", "properties": { "Region": "Arta", "Admin": "Arta", "Localite": "Arta", "Nom_pteau": "Hayssamaleh-Koma", "Carte": "Ali Sabieh", "Type": "Retenue", "Etat": "3 mois" }, "geometry": { "type": "Point", "coordinates": [ 42.716576540000062, 11.351504520000049 ] } },
{ "type": "Feature", "properties": { "Region": "Arta", "Admin": "Arta", "Localite": "Arta", "Nom_pteau": "Kourtimaley", "Carte": "Ali Sabieh", "Type": "Retenue", "Etat": "3 mois" }, "geometry": { "type": "Point", "coordinates": [ 42.681255940000085, 11.302419710000038 ] } },
{ "type": "Feature", "properties": { "Region": "Arta", "Admin": "Damerjog", "Localite": "Damerjog", "Nom_pteau": "E 38-LOYADA", "Carte": "Djib", "Type": "Forage", "Etat": "Piézo" }, "geometry": { "type": "Point", "coordinates": [ 43.241666720000069, 11.456662860000108 ] } },
{ "type": "Feature", "properties": { "Region": "Arta", "Admin": "Damerjog", "Localite": "Damerjog", "Nom_pteau": "Loyada1", "Carte": "Djib", "Type": "Forage", "Etat": "Forage fonctionnel" }, "geometry": { "type": "Point", "coordinates": [ 43.223120020000124, 11.465591830000108 ] } },
{ "type": "Feature", "properties": { "Region": "Arta", "Admin": "Damerjog", "Localite": "Damerjog", "Nom_pteau": "MOGUARADA", "Carte": "Djib", "Type": "Forage", "Etat": "Piézo" }, "geometry": { "type": "Point", "coordinates": [ 43.222222280000096, 11.434162680000043 ] } },
{ "type": "Feature", "properties": { "Region": "Arta", "Admin": "Damerjog", "Localite": "Damerjog", "Nom_pteau": "E 26", "Carte": "Djib", "Type": "Forage", "Etat": "Forage-Onead" }, "geometry": { "type": "Point", "coordinates": [ 43.22053462000008, 11.458434720000184 ] } },
{ "type": "Feature", "properties": { "Region": "Arta", "Admin": "Damerjog", "Localite": "Damerjog", "Nom_pteau": "ATTAR 2", "Carte": "Djib", "Type": "Forage", "Etat": "Forage fonctionnel" }, "geometry": { "type": "Point", "coordinates": [ 43.220000050000067, 11.458329320000132 ] } },
{ "type": "Feature", "properties": { "Region": "Arta", "Admin": "Damerjog", "Localite": "Damerjog", "Nom_pteau": "ATTAR 3", "Carte": "Djib", "Type": "Forage", "Etat": "Forage fonctionnel" }, "geometry": { "type": "Point", "coordinates": [ 43.220000050000067, 11.458329320000132 ] } },
{ "type": "Feature", "properties": { "Region": "Arta", "Admin": "Damerjog", "Localite": "Damerjog", "Nom_pteau": "Loyada2", "Carte": "Djib", "Type": "Forage", "Etat": "Forage fonctionnel" }, "geometry": { "type": "Point", "coordinates": [ 43.218447800000035, 11.466792730000179 ] } },
{ "type": "Feature", "properties": { "Region": "Arta", "Admin": "Damerjog", "Localite": "Damerjog", "Nom_pteau": "Loyada3", "Carte": "Djib", "Type": "Forage", "Etat": "Forage fonctionnel" }, "geometry": { "type": "Point", "coordinates": [ 43.21753139000009, 11.466787130000057 ] } },
{ "type": "Feature", "properties": { "Region": "Arta", "Admin": "Damerjog", "Localite": "Damerjog", "Nom_pteau": "MIGDAOUNE 2", "Carte": "Arta", "Type": "Forage", "Etat": "Piézo" }, "geometry": { "type": "Point", "coordinates": [ 43.217222280000101, 11.441107070000157 ] } },
{ "type": "Feature", "properties": { "Region": "Arta", "Admin": "Damerjog", "Localite": "Damerjog", "Nom_pteau": "E25", "Carte": "Djib", "Type": "Forage", "Etat": "Forage-Onead" }, "geometry": { "type": "Point", "coordinates": [ 43.21316862000009, 11.542413019999969 ] } },
{ "type": "Feature", "properties": { "Region": "Arta", "Admin": "Damerjog", "Localite": "Damerjog", "Nom_pteau": "E 32", "Carte": "Djib", "Type": "Forage", "Etat": "forage négatif" }, "geometry": { "type": "Point", "coordinates": [ 43.21277783000005, 11.447218140000075 ] } },
{ "type": "Feature", "properties": { "Region": "Arta", "Admin": "Damerjog", "Localite": "Damerjog", "Nom_pteau": "E 27", "Carte": "Djib", "Type": "Forage", "Etat": "Forage-Onead" }, "geometry": { "type": "Point", "coordinates": [ 43.211934910000139, 11.457568590000108 ] } },
{ "type": "Feature", "properties": { "Region": "Arta", "Admin": "Damerjog", "Localite": "Damerjog", "Nom_pteau": "ATTAR 6", "Carte": "Djib", "Type": "Forage", "Etat": "Forage fonctionnel" }, "geometry": { "type": "Point", "coordinates": [ 43.210000060000084, 11.446662560000107 ] } },
{ "type": "Feature", "properties": { "Region": "Arta", "Admin": "Damerjog", "Localite": "Damerjog", "Nom_pteau": "E24", "Carte": "Djib", "Type": "Forage", "Etat": "Forage-Onead" }, "geometry": { "type": "Point", "coordinates": [ 43.20927531000018, 11.459342130000095 ] } },
{ "type": "Feature", "properties": { "Region": "Arta", "Admin": "Damerjog", "Localite": "Damerjog", "Nom_pteau": "EM1", "Carte": "Djib", "Type": "Forage", "Etat": "Forage fonctionnel" }, "geometry": { "type": "Point", "coordinates": [ 43.202061110000102, 11.459659350000038 ] } },
{ "type": "Feature", "properties": { "Region": "Arta", "Admin": "Damerjog", "Localite": "Damerjog", "Nom_pteau": "EM2", "Carte": "Djib", "Type": "Forage", "Etat": "Forage fonctionnel" }, "geometry": { "type": "Point", "coordinates": [ 43.201931560000048, 11.459857430000113 ] } },
{ "type": "Feature", "properties": { "Region": "Arta", "Admin": "Damerjog", "Localite": "Damerjog", "Nom_pteau": "EM3", "Carte": "Djib", "Type": "Forage", "Etat": "Forage fonctionnel" }, "geometry": { "type": "Point", "coordinates": [ 43.201838670000029, 11.460055729999965 ] } },
{ "type": "Feature", "properties": { "Region": "Arta", "Admin": "Damerjog", "Localite": "Damerjog", "Nom_pteau": "EM4", "Carte": "Djib", "Type": "Forage", "Etat": "Forage fonctionnel" }, "geometry": { "type": "Point", "coordinates": [ 43.201739920000193, 11.459729690000188 ] } },
{ "type": "Feature", "properties": { "Region": "Arta", "Admin": "Damerjog", "Localite": "Damerjog", "Nom_pteau": "EM5", "Carte": "Djib", "Type": "Forage", "Etat": "Forage fonctionnel" }, "geometry": { "type": "Point", "coordinates": [ 43.201656360000186, 11.459900930000174 ] } },
{ "type": "Feature", "properties": { "Region": "Arta", "Admin": "Damerjog", "Localite": "Damerjog", "Nom_pteau": "ATTAR 5", "Carte": "Djib", "Type": "Forage", "Etat": "Forage fonctionnel" }, "geometry": { "type": "Point", "coordinates": [ 43.201666720000162, 11.446662470000092 ] } },
{ "type": "Feature", "properties": { "Region": "Arta", "Admin": "Damerjog", "Localite": "Damerjog", "Nom_pteau": "ATTAR 7", "Carte": "Djib", "Type": "Forage", "Etat": "Forage fonctionnel" }, "geometry": { "type": "Point", "coordinates": [ 43.20138895000008, 11.476384680000137 ] } },
{ "type": "Feature", "properties": { "Region": "Arta", "Admin": "Damerjog", "Localite": "Damerjog", "Nom_pteau": "ATTAR YAR 1", "Carte": "Djib", "Type": "Forage", "Etat": "Forage fonctionnel" }, "geometry": { "type": "Point", "coordinates": [ 43.201265620000186, 11.495836940000061 ] } },
{ "type": "Feature", "properties": { "Region": "Arta", "Admin": "Damerjog", "Localite": "Damerjog", "Nom_pteau": "E 28", "Carte": "Djib", "Type": "Forage", "Etat": "Piézo" }, "geometry": { "type": "Point", "coordinates": [ 43.201111170000047, 11.458884690000104 ] } },
{ "type": "Feature", "properties": { "Region": "Arta", "Admin": "Damerjog", "Localite": "Damerjog", "Nom_pteau": "ATTAR 7", "Carte": "Djib", "Type": "Forage", "Etat": "Forage fonctionnel" }, "geometry": { "type": "Point", "coordinates": [ 43.200000060000093, 11.474718 ] } },
{ "type": "Feature", "properties": { "Region": "Arta", "Admin": "Damerjog", "Localite": "Damerjog", "Nom_pteau": "ATTAR 4", "Carte": "Djib", "Type": "Forage", "Etat": "Forage fonctionnel" }, "geometry": { "type": "Point", "coordinates": [ 43.196666720000167, 11.462495750000073 ] } },
{ "type": "Feature", "properties": { "Region": "Arta", "Admin": "Damerjog", "Localite": "Damerjog", "Nom_pteau": "E29b", "Carte": "Djib", "Type": "Forage", "Etat": "Forage-Onead" }, "geometry": { "type": "Point", "coordinates": [ 43.193796440000028, 11.46521284 ] } },
{ "type": "Feature", "properties": { "Region": "Arta", "Admin": "Damerjog", "Localite": "Damerjog", "Nom_pteau": "E 23", "Carte": "Djib", "Type": "Forage", "Etat": "Piézo" }, "geometry": { "type": "Point", "coordinates": [ 43.192777840000133, 11.466662380000059 ] } },
{ "type": "Feature", "properties": { "Region": "Arta", "Admin": "Damerjog", "Localite": "Damerjog", "Nom_pteau": "Damerjog F1", "Carte": "Djib", "Type": "Forage", "Etat": "Forage fonctionnel" }, "geometry": { "type": "Point", "coordinates": [ 43.191491910000138, 11.468769170000087 ] } },
{ "type": "Feature", "properties": { "Region": "Arta", "Admin": "Damerjog", "Localite": "Damerjog", "Nom_pteau": "ATTAR 1", "Carte": "Djib", "Type": "Forage", "Etat": "Forage fonctionnel" }, "geometry": { "type": "Point", "coordinates": [ 43.191111170000056, 11.468606799999975 ] } },
{ "type": "Feature", "properties": { "Region": "Arta", "Admin": "Damerjog", "Localite": "Damerjog", "Nom_pteau": "E22b", "Carte": "Djib", "Type": "Forage", "Etat": "Forage-Onead" }, "geometry": { "type": "Point", "coordinates": [ 43.189908780000053, 11.469844090000038 ] } },
{ "type": "Feature", "properties": { "Region": "Arta", "Admin": "Damerjog", "Localite": "Damerjog", "Nom_pteau": "E 22", "Carte": "Djib", "Type": "Forage", "Etat": "Forage-Onead" }, "geometry": { "type": "Point", "coordinates": [ 43.18979046000004, 11.469716809999966 ] } },
{ "type": "Feature", "properties": { "Region": "Arta", "Admin": "Damerjog", "Localite": "Damerjog", "Nom_pteau": "E22", "Carte": "Djib", "Type": "Forage", "Etat": "Forage fonctionnel" }, "geometry": { "type": "Point", "coordinates": [ 43.189566660000139, 11.470321070000068 ] } },
{ "type": "Feature", "properties": { "Region": "Arta", "Admin": "Damerjog", "Localite": "Damerjog", "Nom_pteau": "E 21", "Carte": "Djib", "Type": "Forage", "Etat": "Forage-Onead" }, "geometry": { "type": "Point", "coordinates": [ 43.1848792400001, 11.472443319999968 ] } },
{ "type": "Feature", "properties": { "Region": "Arta", "Admin": "Damerjog", "Localite": "Damerjog", "Nom_pteau": "Damerjog E21", "Carte": "Djib", "Type": "Forage", "Etat": "Forage fonctionnel" }, "geometry": { "type": "Point", "coordinates": [ 43.184540210000137, 11.473869450000052 ] } },
{ "type": "Feature", "properties": { "Region": "Arta", "Admin": "Damerjog", "Localite": "Damerjog", "Nom_pteau": "DAMERJOG", "Carte": "Djib", "Type": "Forage", "Etat": "Forage fonctionnel" }, "geometry": { "type": "Point", "coordinates": [ 43.179166730000134, 11.499995560000059 ] } },
{ "type": "Feature", "properties": { "Region": "Arta", "Admin": "Damerjog", "Localite": "Damerjog", "Nom_pteau": "E 31", "Carte": "Djib", "Type": "Forage", "Etat": "Forage fonctionnel" }, "geometry": { "type": "Point", "coordinates": [ 43.17805562, 11.469162230000109 ] } },
{ "type": "Feature", "properties": { "Region": "Arta", "Admin": "Damerjog", "Localite": "Damerjog", "Nom_pteau": "NAASLEY", "Carte": "Djib", "Type": "Forage", "Etat": "Forage Positif" }, "geometry": { "type": "Point", "coordinates": [ 43.177777840000147, 11.499995550000051 ] } },
{ "type": "Feature", "properties": { "Region": "Arta", "Admin": "Damerjog", "Localite": "Damerjog", "Nom_pteau": "E31", "Carte": "Djib", "Type": "Forage", "Etat": "Forage-Onead" }, "geometry": { "type": "Point", "coordinates": [ 43.177907340000047, 11.473520720000124 ] } },
{ "type": "Feature", "properties": { "Region": "Arta", "Admin": "douda", "Localite": "douda", "Nom_pteau": "E 20", "Carte": "Djib", "Type": "Forage", "Etat": "Piézo" }, "geometry": { "type": "Point", "coordinates": [ 43.174166730000138, 11.488051070000154 ] } },
{ "type": "Feature", "properties": { "Region": "Arta", "Admin": "douda", "Localite": "douda", "Nom_pteau": "E 19", "Carte": "Djib", "Type": "Forage", "Etat": "Forage-Onead" }, "geometry": { "type": "Point", "coordinates": [ 43.169279960000097, 11.491129700000158 ] } },
{ "type": "Feature", "properties": { "Region": "Arta", "Admin": "Damerjog", "Localite": "douda", "Nom_pteau": "E 18", "Carte": "Djib", "Type": "Forage", "Etat": "Forage-Onead" }, "geometry": { "type": "Point", "coordinates": [ 43.161434190000193, 11.502515060000178 ] } },
{ "type": "Feature", "properties": { "Region": "Arta", "Admin": "Damerjog", "Localite": "douda", "Nom_pteau": "E17", "Carte": "Djib", "Type": "Forage", "Etat": "Forage positif" }, "geometry": { "type": "Point", "coordinates": [ 43.157570670000098, 11.507498410000039 ] } },
{ "type": "Feature", "properties": { "Region": "Arta", "Admin": "Damerjog", "Localite": "douda", "Nom_pteau": "E17b", "Carte": "Djib", "Type": "Forage", "Etat": "Forage-Onead" }, "geometry": { "type": "Point", "coordinates": [ 43.157570670000098, 11.507498410000039 ] } },
{ "type": "Feature", "properties": { "Region": "Arta", "Admin": "douda", "Localite": "douda", "Nom_pteau": "Douda-Yar E18", "Carte": "Loyada", "Type": "Forage", "Etat": "Forage fonctionnel" }, "geometry": { "type": "Point", "coordinates": [ 43.157570250000049, 11.507561680000094 ] } },
{ "type": "Feature", "properties": { "Region": "Arta", "Admin": "Douda", "Localite": "Douda", "Nom_pteau": "E 33", "Carte": "Djib", "Type": "Forage", "Etat": "Forage fonctionnel" }, "geometry": { "type": "Point", "coordinates": [ 43.15722229000005, 11.474439780000125 ] } },
{ "type": "Feature", "properties": { "Region": "Arta", "Admin": "Damerjog", "Localite": "douda", "Nom_pteau": "E 17", "Carte": "Djib", "Type": "Forage", "Etat": "Forage fonctionnel" }, "geometry": { "type": "Point", "coordinates": [ 43.156944510000187, 11.507773100000179 ] } },
{ "type": "Feature", "properties": { "Region": "Arta", "Admin": "Damerjog", "Localite": "douda", "Nom_pteau": "E1", "Carte": "Djib", "Type": "Forage", "Etat": "Forage fonctionnel" }, "geometry": { "type": "Point", "coordinates": [ 43.156810630000109, 11.474960900000099 ] } },
{ "type": "Feature", "properties": { "Region": "Arta", "Admin": "Damerjog", "Localite": "Damerjog", "Nom_pteau": "E33b", "Carte": "Djib", "Type": "Forage", "Etat": "Forage-Onead" }, "geometry": { "type": "Point", "coordinates": [ 43.156480380000119, 11.475013050000143 ] } },
{ "type": "Feature", "properties": { "Region": "Arta", "Admin": "arta", "Localite": "arta", "Nom_pteau": "E16", "Carte": "Djib", "Type": "Forage", "Etat": "Forage positif" }, "geometry": { "type": "Point", "coordinates": [ 43.154765900000029, 11.500484159999985 ] } },
{ "type": "Feature", "properties": { "Region": "Arta", "Admin": "Douda", "Localite": "Douda", "Nom_pteau": "E 36", "Carte": "Djib", "Type": "Forage", "Etat": "Forage-Onead" }, "geometry": { "type": "Point", "coordinates": [ 43.151820800000053, 11.382329900000059 ] } },
{ "type": "Feature", "properties": { "Region": "Arta", "Admin": "Damerjog", "Localite": "douda", "Nom_pteau": "E 16", "Carte": "Djib", "Type": "Forage", "Etat": "Forage fonctionnel" }, "geometry": { "type": "Point", "coordinates": [ 43.148055620000093, 11.513328560000105 ] } },
{ "type": "Feature", "properties": { "Region": "Arta", "Admin": "Damerjog", "Localite": "douda", "Nom_pteau": "E 14", "Carte": "Djib", "Type": "Forage", "Etat": "Forage fonctionnel" }, "geometry": { "type": "Point", "coordinates": [ 43.147222290000059, 11.521106320000115 ] } },
{ "type": "Feature", "properties": { "Region": "Arta", "Admin": "douda", "Localite": "douda", "Nom_pteau": "GALILE", "Carte": "Djib", "Type": "Forage", "Etat": "Forage fonctionnel" }, "geometry": { "type": "Point", "coordinates": [ 43.147222290000059, 11.508328550000158 ] } },
{ "type": "Feature", "properties": { "Region": "Arta", "Admin": "Douda", "Localite": "Douda", "Nom_pteau": "E 35", "Carte": "Djib", "Type": "Forage", "Etat": "Forage-Onead" }, "geometry": { "type": "Point", "coordinates": [ 43.139946710000117, 11.388112420000141 ] } },
{ "type": "Feature", "properties": { "Region": "Arta", "Admin": "Damerjog", "Localite": "douda", "Nom_pteau": "GODCHABEL 1", "Carte": "Djib", "Type": "Forage", "Etat": "Forage Positif" }, "geometry": { "type": "Point", "coordinates": [ 43.138888960000145, 11.456939590000104 ] } },
{ "type": "Feature", "properties": { "Region": "Arta", "Admin": "Damerjog", "Localite": "douda", "Nom_pteau": "E 9  BIS", "Carte": "Djib", "Type": "Forage", "Etat": "Forage-Onead" },